[
	{
		"name": "Carlton",
		"postcode": 3053,
		"state": "VIC",
		"locality": "MELB NORTH WEST",
		"latitude": -37.8004,
		"longitude": 144.9681
	},
	{
		"name": "Carlton South",
		"postcode": 3053,
		"state": "VIC",
		"locality": "MELB NORTH WEST",
		"latitude": -37.8004,
		"longitude": 144.9681
	},
	{
		"name": "Carlton North",
		"postcode": 3054,
		"state": "VIC",
		"locality": "MELB NORTH WEST",
		"latitude": -37.7857,
		"longitude": 144.9681
	},
	{
		"name": "Docklands",
		"postcode": 3008,
		"state": "VIC",
		"locality": "MELBOURNE CITY",
		"latitude": -37.8179,
		"longitude": 144.9399
	},
	{
		"name": "East Melbourne",
		"postcode": 3002,
		"state": "VIC",
		"locality": "MELBOURNE CITY",
		"latitude": -37.8144,
		"longitude": 144.9826
	},
	{
		"name": "Flemington",
		"postcode": 3031,
		"state": "VIC",
		"locality": "FOOTSCRAY",
		"latitude": -37.7899,
		"longitude": 144.9226
	},
	{
		"name": "Kensington",
		"postcode": 3031,
		"state": "VIC",
		"locality": "FOOTSCRAY",
		"latitude": -37.7899,
		"longitude": 144.9226
	},
	{
		"name": "Melbourne",
		"postcode": 3000,
		"state": "VIC",
		"locality": "MELBOURNE CITY",
		"latitude": -37.8232,
		"longitude": 144.9729
	},
	{
		"name": "Melbourne",
		"postcode": 3000,
		"state": "VIC",
		"locality": "MELBOURNE CITY",
		"latitude": -37.8232,
		"longitude": 144.9729
	},
	{
		"name": "North Melbourne",
		"postcode": 3051,
		"state": "VIC",
		"locality": "MELBOURNE CITY",
		"latitude": -37.7984,
		"longitude": 144.9449
	},
	{
		"name": "Hotham Hill",
		"postcode": 3051,
		"state": "VIC",
		"locality": "MELBOURNE CITY",
		"latitude": -37.7984,
		"longitude": 144.9449
	},
	{
		"name": "Parkville",
		"postcode": 3052,
		"state": "VIC",
		"locality": "MELB NORTH WEST",
		"latitude": -37.7853,
		"longitude": 144.9498
	},
	{
		"name": "Port Melbourne",
		"postcode": 3207,
		"state": "VIC",
		"locality": "MOORABBIN",
		"latitude": -37.8333,
		"longitude": 144.9333
	},
	{
		"name": "Southbank",
		"postcode": 3006,
		"state": "VIC",
		"locality": "MOORABBIN",
		"latitude": -37.8252,
		"longitude": 144.9602
	},
	{
		"name": "South Yarra",
		"postcode": 3141,
		"state": "VIC",
		"locality": "MOORABBIN",
		"latitude": -37.8333,
		"longitude": 144.9833
	},
	{
		"name": "West Melbourne",
		"postcode": 3003,
		"state": "VIC",
		"locality": "MELBOURNE CITY",
		"latitude": -37.809,
		"longitude": 144.9256
	},
	{
		"name": "Albert Park",
		"postcode": 3206,
		"state": "VIC",
		"locality": "MOORABBIN",
		"latitude": -37.8463,
		"longitude": 144.9631
	},
	{
		"name": "Balaclava",
		"postcode": 3183,
		"state": "VIC",
		"locality": "MOORABBIN",
		"latitude": -37.8676,
		"longitude": 145.0001
	},
	{
		"name": "Elwood",
		"postcode": 3184,
		"state": "VIC",
		"locality": "MOORABBIN",
		"latitude": -37.8833,
		"longitude": 144.9833
	},
	{
		"name": "Brighton Road",
		"postcode": 3184,
		"state": "VIC",
		"locality": "MOORABBIN",
		"latitude": -37.8809,
		"longitude": 144.9855
	},
	{
		"name": "Melbourne",
		"postcode": 3000,
		"state": "VIC",
		"locality": "MELBOURNE CITY",
		"latitude": -37.8232,
		"longitude": 144.9729
	},
	{
		"name": "Middle Park",
		"postcode": 3206,
		"state": "VIC",
		"locality": "MOORABBIN",
		"latitude": -37.8463,
		"longitude": 144.9631
	},
	{
		"name": "Port Melbourne",
		"postcode": 3207,
		"state": "VIC",
		"locality": "MOORABBIN",
		"latitude": -37.8333,
		"longitude": 144.9333
	},
	{
		"name": "Garden City",
		"postcode": 3207,
		"state": "VIC",
		"locality": "MOORABBIN",
		"latitude": -37.8329,
		"longitude": 144.922
	},
	{
		"name": "Ripponlea",
		"postcode": 3185,
		"state": "VIC",
		"locality": "MOORABBIN",
		"latitude": -37.8861,
		"longitude": 145.0061
	},
	{
		"name": "St Kilda",
		"postcode": 3182,
		"state": "VIC",
		"locality": "MOORABBIN",
		"latitude": -37.8633,
		"longitude": 144.9802
	},
	{
		"name": "St Kilda South",
		"postcode": 3182,
		"state": "VIC",
		"locality": "MOORABBIN",
		"latitude": -37.8633,
		"longitude": 144.9802
	},
	{
		"name": "St Kilda East",
		"postcode": 3183,
		"state": "VIC",
		"locality": "MOORABBIN",
		"latitude": -37.8676,
		"longitude": 145.0001
	},
	{
		"name": "St Kilda West",
		"postcode": 3182,
		"state": "VIC",
		"locality": "MOORABBIN",
		"latitude": -37.8633,
		"longitude": 144.9802
	},
	{
		"name": "Southbank",
		"postcode": 3006,
		"state": "VIC",
		"locality": "MOORABBIN",
		"latitude": -37.8252,
		"longitude": 144.9602
	},
	{
		"name": "South Melbourne",
		"postcode": 3205,
		"state": "VIC",
		"locality": "MOORABBIN",
		"latitude": -37.8333,
		"longitude": 144.9667
	},
	{
		"name": "Abbotsford",
		"postcode": 3067,
		"state": "VIC",
		"locality": "HAWTHORN",
		"latitude": -37.8044,
		"longitude": 144.9997
	},
	{
		"name": "Alphington",
		"postcode": 3078,
		"state": "VIC",
		"locality": "PRESTON",
		"latitude": -37.7829,
		"longitude": 145.0226
	},
	{
		"name": "Burnley",
		"postcode": 3121,
		"state": "VIC",
		"locality": "MOORABBIN",
		"latitude": -37.8229,
		"longitude": 145.004
	},
	{
		"name": "Carlton North",
		"postcode": 3054,
		"state": "VIC",
		"locality": "MELB NORTH WEST",
		"latitude": -37.7857,
		"longitude": 144.9681
	},
	{
		"name": "Clifton Hill",
		"postcode": 3068,
		"state": "VIC",
		"locality": "HAWTHORN",
		"latitude": -37.7865,
		"longitude": 144.9897
	},
	{
		"name": "Collingwood",
		"postcode": 3066,
		"state": "VIC",
		"locality": "HAWTHORN",
		"latitude": -37.8,
		"longitude": 144.9833
	},
	{
		"name": "Cremorne",
		"postcode": 3121,
		"state": "VIC",
		"locality": "MOORABBIN",
		"latitude": -37.8333,
		"longitude": 145
	},
	{
		"name": "Fairfield",
		"postcode": 3078,
		"state": "VIC",
		"locality": "PRESTON",
		"latitude": -37.7829,
		"longitude": 145.0226
	},
	{
		"name": "Fitzroy",
		"postcode": 3065,
		"state": "VIC",
		"locality": "HAWTHORN",
		"latitude": -37.7833,
		"longitude": 144.9833
	},
	{
		"name": "Fitzroy North",
		"postcode": 3068,
		"state": "VIC",
		"locality": "HAWTHORN",
		"latitude": -37.7865,
		"longitude": 144.9897
	},
	{
		"name": "Richmond",
		"postcode": 3121,
		"state": "VIC",
		"locality": "MOORABBIN",
		"latitude": -37.8333,
		"longitude": 145
	},
	{
		"name": "Briar Hill",
		"postcode": 3088,
		"state": "VIC",
		"locality": "PRESTON",
		"latitude": -37.7167,
		"longitude": 145.1167
	},
	{
		"name": "Bundoora",
		"postcode": 3083,
		"state": "VIC",
		"locality": "PRESTON",
		"latitude": -37.6959,
		"longitude": 145.0599
	},
	{
		"name": "Eaglemont",
		"postcode": 3084,
		"state": "VIC",
		"locality": "HAWTHORN",
		"latitude": -37.7625,
		"longitude": 145.0682
	},
	{
		"name": "Eltham",
		"postcode": 3095,
		"state": "VIC",
		"locality": "MELB NORTH WEST",
		"latitude": -37.7333,
		"longitude": 145.15
	},
	{
		"name": "Eltham North",
		"postcode": 3095,
		"state": "VIC",
		"locality": "MELB NORTH WEST",
		"latitude": -37.7,
		"longitude": 145.15
	},
	{
		"name": "Greensborough",
		"postcode": 3088,
		"state": "VIC",
		"locality": "PRESTON",
		"latitude": -37.6977,
		"longitude": 145.1115
	},
	{
		"name": "Heidelberg",
		"postcode": 3084,
		"state": "VIC",
		"locality": "HAWTHORN",
		"latitude": -37.75,
		"longitude": 145.0667
	},
	{
		"name": "Heidelberg Heights",
		"postcode": 3081,
		"state": "VIC",
		"locality": "HAWTHORN",
		"latitude": -37.743,
		"longitude": 145.0464
	},
	{
		"name": "Heidelberg West",
		"postcode": 3081,
		"state": "VIC",
		"locality": "HAWTHORN",
		"latitude": -37.743,
		"longitude": 145.0464
	},
	{
		"name": "Ivanhoe",
		"postcode": 3079,
		"state": "VIC",
		"locality": "HAWTHORN",
		"latitude": -37.7702,
		"longitude": 145.0491
	},
	{
		"name": "Ivanhoe East",
		"postcode": 3079,
		"state": "VIC",
		"locality": "HAWTHORN",
		"latitude": -37.7702,
		"longitude": 145.0491
	},
	{
		"name": "Lower Plenty",
		"postcode": 3093,
		"state": "VIC",
		"locality": "PRESTON",
		"latitude": -37.7333,
		"longitude": 145.1167
	},
	{
		"name": "Macleod",
		"postcode": 3085,
		"state": "VIC",
		"locality": "HAWTHORN",
		"latitude": -37.7225,
		"longitude": 145.0792
	},
	{
		"name": "Montmorency",
		"postcode": 3094,
		"state": "VIC",
		"locality": "PRESTON",
		"latitude": -37.7167,
		"longitude": 145.1167
	},
	{
		"name": "Rosanna",
		"postcode": 3084,
		"state": "VIC",
		"locality": "HAWTHORN",
		"latitude": -37.7464,
		"longitude": 145.0771
	},
	{
		"name": "Banyule",
		"postcode": 3084,
		"state": "VIC",
		"locality": "HAWTHORN",
		"latitude": -37.7464,
		"longitude": 145.0771
	},
	{
		"name": "Viewbank",
		"postcode": 3084,
		"state": "VIC",
		"locality": "HAWTHORN",
		"latitude": -37.7464,
		"longitude": 145.0771
	},
	{
		"name": "Watsonia",
		"postcode": 3087,
		"state": "VIC",
		"locality": "PRESTON",
		"latitude": -37.705,
		"longitude": 145.0845
	},
	{
		"name": "Yallambie",
		"postcode": 3085,
		"state": "VIC",
		"locality": "HAWTHORN",
		"latitude": -37.7225,
		"longitude": 145.0792
	},
	{
		"name": "Alphington",
		"postcode": 3078,
		"state": "VIC",
		"locality": "PRESTON",
		"latitude": -37.7829,
		"longitude": 145.0226
	},
	{
		"name": "Bundoora",
		"postcode": 3083,
		"state": "VIC",
		"locality": "PRESTON",
		"latitude": -37.6959,
		"longitude": 145.0599
	},
	{
		"name": "Fairfield",
		"postcode": 3078,
		"state": "VIC",
		"locality": "PRESTON",
		"latitude": -37.7829,
		"longitude": 145.0226
	},
	{
		"name": "Kingsbury",
		"postcode": 3083,
		"state": "VIC",
		"locality": "PRESTON",
		"latitude": -37.7141,
		"longitude": 145.0351
	},
	{
		"name": "Macleod",
		"postcode": 3085,
		"state": "VIC",
		"locality": "HAWTHORN",
		"latitude": -37.7225,
		"longitude": 145.0792
	},
	{
		"name": "Northcote",
		"postcode": 3070,
		"state": "VIC",
		"locality": "PRESTON",
		"latitude": -37.7667,
		"longitude": 145
	},
	{
		"name": "Preston",
		"postcode": 3072,
		"state": "VIC",
		"locality": "PRESTON",
		"latitude": -37.75,
		"longitude": 145.0167
	},
	{
		"name": "Regent West",
		"postcode": 3072,
		"state": "VIC",
		"locality": "PRESTON",
		"latitude": -37.7419,
		"longitude": 145.0078
	},
	{
		"name": "Reservoir",
		"postcode": 3073,
		"state": "VIC",
		"locality": "PRESTON",
		"latitude": -37.7167,
		"longitude": 145
	},
	{
		"name": "Thornbury",
		"postcode": 3071,
		"state": "VIC",
		"locality": "PRESTON",
		"latitude": -37.7582,
		"longitude": 145.0064
	},
	{
		"name": "Attwood",
		"postcode": 3049,
		"state": "VIC",
		"locality": "MELB NORTH WEST",
		"latitude": -37.6724,
		"longitude": 144.8919
	},
	{
		"name": "Broadmeadows",
		"postcode": 3047,
		"state": "VIC",
		"locality": "MELB NORTH WEST",
		"latitude": -37.6667,
		"longitude": 144.9
	},
	{
		"name": "Campbellfield",
		"postcode": 3061,
		"state": "VIC",
		"locality": "MELB NORTH WEST",
		"latitude": -37.6833,
		"longitude": 144.95
	},
	{
		"name": "Coolaroo",
		"postcode": 3048,
		"state": "VIC",
		"locality": "MELB NORTH WEST",
		"latitude": -37.6533,
		"longitude": 144.9251
	},
	{
		"name": "Craigieburn",
		"postcode": 3064,
		"state": "VIC",
		"locality": "MELB NORTH WEST",
		"latitude": -37.5588,
		"longitude": 144.9124
	},
	{
		"name": "Dallas",
		"postcode": 3047,
		"state": "VIC",
		"locality": "MELB NORTH WEST",
		"latitude": -37.6808,
		"longitude": 144.9299
	},
	{
		"name": "Gladstone Park",
		"postcode": 3043,
		"state": "VIC",
		"locality": "FOOTSCRAY",
		"latitude": -37.6886,
		"longitude": 144.8836
	},
	{
		"name": "Greenvale",
		"postcode": 3059,
		"state": "VIC",
		"locality": "MELB NORTH WEST",
		"latitude": -37.6333,
		"longitude": 144.8667
	},
	{
		"name": "Jacana",
		"postcode": 3047,
		"state": "VIC",
		"locality": "MELB NORTH WEST",
		"latitude": -37.6903,
		"longitude": 144.9157
	},
	{
		"name": "Keilor",
		"postcode": 3036,
		"state": "VIC",
		"locality": "FOOTSCRAY",
		"latitude": -37.7167,
		"longitude": 144.8333
	},
	{
		"name": "Meadow Heights",
		"postcode": 3048,
		"state": "VIC",
		"locality": "MELB NORTH WEST",
		"latitude": -37.6533,
		"longitude": 144.9251
	},
	{
		"name": "Melbourne Airport",
		"postcode": 3045,
		"state": "VIC",
		"locality": "FOOTSCRAY",
		"latitude": -37.6655,
		"longitude": 144.8363
	},
	{
		"name": "Roxburgh Park",
		"postcode": 3064,
		"state": "VIC",
		"locality": "MELB NORTH WEST",
		"latitude": -37.6368,
		"longitude": 144.9326
	},
	{
		"name": "Somerton",
		"postcode": 3062,
		"state": "VIC",
		"locality": "MELB NORTH WEST",
		"latitude": -37.65,
		"longitude": 144.9333
	},
	{
		"name": "Tullamarine",
		"postcode": 3043,
		"state": "VIC",
		"locality": "FOOTSCRAY",
		"latitude": -37.7,
		"longitude": 144.8667
	},
	{
		"name": "Westmeadows",
		"postcode": 3049,
		"state": "VIC",
		"locality": "MELB NORTH WEST",
		"latitude": -37.6724,
		"longitude": 144.8919
	},
	{
		"name": "Sunbury",
		"postcode": 3429,
		"state": "VIC",
		"locality": "MELB NORTH WEST",
		"latitude": -37.5833,
		"longitude": 144.7333
	},
	{
		"name": "Bulla",
		"postcode": 3428,
		"state": "VIC",
		"locality": "MELB NORTH WEST",
		"latitude": -37.6333,
		"longitude": 144.8
	},
	{
		"name": "Clarkefield",
		"postcode": 3430,
		"state": "VIC",
		"locality": "MELB NORTH WEST",
		"latitude": -37.4833,
		"longitude": 144.75
	},
	{
		"name": "Diggers Rest",
		"postcode": 3427,
		"state": "VIC",
		"locality": "MELB NORTH WEST",
		"latitude": -37.6333,
		"longitude": 144.7333
	},
	{
		"name": "Kalkallo",
		"postcode": 3064,
		"state": "VIC",
		"locality": "MELB NORTH WEST",
		"latitude": -37.5333,
		"longitude": 144.95
	},
	{
		"name": "Mickleham",
		"postcode": 3064,
		"state": "VIC",
		"locality": "MELB NORTH WEST",
		"latitude": -37.5588,
		"longitude": 144.9124
	},
	{
		"name": "Oaklands Junction",
		"postcode": 3063,
		"state": "VIC",
		"locality": "MELB NORTH WEST",
		"latitude": -37.6298,
		"longitude": 144.8392
	},
	{
		"name": "Yuroke",
		"postcode": 3063,
		"state": "VIC",
		"locality": "MELB NORTH WEST",
		"latitude": -37.5896,
		"longitude": 144.8794
	},
	{
		"name": "Aberfeldie",
		"postcode": 3040,
		"state": "VIC",
		"locality": "FOOTSCRAY",
		"latitude": -37.7518,
		"longitude": 144.9056
	},
	{
		"name": "Airport West",
		"postcode": 3042,
		"state": "VIC",
		"locality": "FOOTSCRAY",
		"latitude": -37.7254,
		"longitude": 144.8709
	},
	{
		"name": "Ascot Vale",
		"postcode": 3032,
		"state": "VIC",
		"locality": "FOOTSCRAY",
		"latitude": -37.7833,
		"longitude": 144.9167
	},
	{
		"name": "Avondale Heights",
		"postcode": 3034,
		"state": "VIC",
		"locality": "FOOTSCRAY",
		"latitude": -37.7616,
		"longitude": 144.8626
	},
	{
		"name": "Essendon",
		"postcode": 3040,
		"state": "VIC",
		"locality": "FOOTSCRAY",
		"latitude": -37.7667,
		"longitude": 144.9167
	},
	{
		"name": "Essendon North",
		"postcode": 3041,
		"state": "VIC",
		"locality": "FOOTSCRAY",
		"latitude": -37.7295,
		"longitude": 144.9073
	},
	{
		"name": "Essendon West",
		"postcode": 3040,
		"state": "VIC",
		"locality": "FOOTSCRAY",
		"latitude": -37.7538,
		"longitude": 144.8883
	},
	{
		"name": "Flemington",
		"postcode": 3031,
		"state": "VIC",
		"locality": "FOOTSCRAY",
		"latitude": -37.7899,
		"longitude": 144.9226
	},
	{
		"name": "Keilor East",
		"postcode": 3033,
		"state": "VIC",
		"locality": "FOOTSCRAY",
		"latitude": -37.739,
		"longitude": 144.8547
	},
	{
		"name": "Moonee Ponds",
		"postcode": 3039,
		"state": "VIC",
		"locality": "FOOTSCRAY",
		"latitude": -37.7667,
		"longitude": 144.9167
	},
	{
		"name": "Niddrie",
		"postcode": 3042,
		"state": "VIC",
		"locality": "FOOTSCRAY",
		"latitude": -37.7254,
		"longitude": 144.8709
	},
	{
		"name": "Strathmore",
		"postcode": 3041,
		"state": "VIC",
		"locality": "FOOTSCRAY",
		"latitude": -37.7295,
		"longitude": 144.9073
	},
	{
		"name": "Strathmore Heights",
		"postcode": 3041,
		"state": "VIC",
		"locality": "FOOTSCRAY",
		"latitude": -37.7167,
		"longitude": 144.8976
	},
	{
		"name": "Travancore",
		"postcode": 3032,
		"state": "VIC",
		"locality": "FOOTSCRAY",
		"latitude": -37.7778,
		"longitude": 144.9299
	},
	{
		"name": "Brunswick",
		"postcode": 3056,
		"state": "VIC",
		"locality": "PRESTON",
		"latitude": -37.7667,
		"longitude": 144.9667
	},
	{
		"name": "Brunswick East",
		"postcode": 3057,
		"state": "VIC",
		"locality": "PRESTON",
		"latitude": -37.769,
		"longitude": 144.9777
	},
	{
		"name": "Brunswick West",
		"postcode": 3055,
		"state": "VIC",
		"locality": "PRESTON",
		"latitude": -37.7634,
		"longitude": 144.9425
	},
	{
		"name": "Coburg",
		"postcode": 3058,
		"state": "VIC",
		"locality": "PRESTON",
		"latitude": -37.75,
		"longitude": 144.9667
	},
	{
		"name": "Moreland",
		"postcode": 3058,
		"state": "VIC",
		"locality": "PRESTON",
		"latitude": -37.7375,
		"longitude": 144.9655
	},
	{
		"name": "Coburg North",
		"postcode": 3058,
		"state": "VIC",
		"locality": "PRESTON",
		"latitude": -37.7375,
		"longitude": 144.9655
	},
	{
		"name": "Merlynston",
		"postcode": 3058,
		"state": "VIC",
		"locality": "PRESTON",
		"latitude": -37.7375,
		"longitude": 144.9655
	},
	{
		"name": "Fawkner",
		"postcode": 3060,
		"state": "VIC",
		"locality": "PRESTON",
		"latitude": -37.7167,
		"longitude": 144.9667
	},
	{
		"name": "Glenroy",
		"postcode": 3046,
		"state": "VIC",
		"locality": "PRESTON",
		"latitude": -37.7,
		"longitude": 144.9333
	},
	{
		"name": "Gowanbrae",
		"postcode": 3043,
		"state": "VIC",
		"locality": "FOOTSCRAY",
		"latitude": -37.7063,
		"longitude": 144.8949
	},
	{
		"name": "Hadfield",
		"postcode": 3046,
		"state": "VIC",
		"locality": "PRESTON",
		"latitude": -37.7065,
		"longitude": 144.9308
	},
	{
		"name": "Oak Park",
		"postcode": 3046,
		"state": "VIC",
		"locality": "PRESTON",
		"latitude": -37.7065,
		"longitude": 144.9308
	},
	{
		"name": "Pascoe Vale",
		"postcode": 3044,
		"state": "VIC",
		"locality": "PRESTON",
		"latitude": -37.7319,
		"longitude": 144.9381
	},
	{
		"name": "Pascoe Vale South",
		"postcode": 3044,
		"state": "VIC",
		"locality": "PRESTON",
		"latitude": -37.7319,
		"longitude": 144.9381
	},
	{
		"name": "Tullamarine",
		"postcode": 3043,
		"state": "VIC",
		"locality": "FOOTSCRAY",
		"latitude": -37.7,
		"longitude": 144.8667
	},
	{
		"name": "Diamond Creek",
		"postcode": 3089,
		"state": "VIC",
		"locality": "PRESTON",
		"latitude": -37.6667,
		"longitude": 145.15
	},
	{
		"name": "Eltham",
		"postcode": 3095,
		"state": "VIC",
		"locality": "MELB NORTH WEST",
		"latitude": -37.7333,
		"longitude": 145.15
	},
	{
		"name": "Eltham North",
		"postcode": 3095,
		"state": "VIC",
		"locality": "MELB NORTH WEST",
		"latitude": -37.7,
		"longitude": 145.15
	},
	{
		"name": "Greensborough",
		"postcode": 3088,
		"state": "VIC",
		"locality": "PRESTON",
		"latitude": -37.6977,
		"longitude": 145.1115
	},
	{
		"name": "Hurstbridge",
		"postcode": 3099,
		"state": "VIC",
		"locality": "PRESTON",
		"latitude": -37.6402,
		"longitude": 145.1925
	},
	{
		"name": "North Warrandyte",
		"postcode": 3113,
		"state": "VIC",
		"locality": "RINGWOOD",
		"latitude": -37.745,
		"longitude": 145.2082
	},
	{
		"name": "Research",
		"postcode": 3095,
		"state": "VIC",
		"locality": "MELB NORTH WEST",
		"latitude": -37.7,
		"longitude": 145.1833
	},
	{
		"name": "Wattle Glen",
		"postcode": 3096,
		"state": "VIC",
		"locality": "PRESTON",
		"latitude": -37.6631,
		"longitude": 145.1994
	},
	{
		"name": "Christmas Hills",
		"postcode": 3775,
		"state": "VIC",
		"locality": "RINGWOOD",
		"latitude": -37.6241,
		"longitude": 145.3869
	},
	{
		"name": "Cottles Bridge",
		"postcode": 3099,
		"state": "VIC",
		"locality": "PRESTON",
		"latitude": -37.6251,
		"longitude": 145.2167
	},
	{
		"name": "Doreen",
		"postcode": 3754,
		"state": "VIC",
		"locality": "MELB NORTH WEST",
		"latitude": -37.6,
		"longitude": 145.15
	},
	{
		"name": "Kangaroo Ground",
		"postcode": 3097,
		"state": "VIC",
		"locality": "MELB NORTH WEST",
		"latitude": -37.691,
		"longitude": 145.2281
	},
	{
		"name": "Kinglake",
		"postcode": 3763,
		"state": "VIC",
		"locality": "MELB NORTH WEST",
		"latitude": -37.5167,
		"longitude": 145.35
	},
	{
		"name": "Bylands",
		"postcode": 3762,
		"state": "VIC",
		"locality": "MELB NORTH WEST",
		"latitude": -37.35,
		"longitude": 144.9667
	},
	{
		"name": "Kinglake West",
		"postcode": 3757,
		"state": "VIC",
		"locality": "MELB NORTH WEST",
		"latitude": -37.4767,
		"longitude": 145.2357
	},
	{
		"name": "Nutfield",
		"postcode": 3099,
		"state": "VIC",
		"locality": "PRESTON",
		"latitude": -37.6105,
		"longitude": 145.1736
	},
	{
		"name": "Panton Hill",
		"postcode": 3759,
		"state": "VIC",
		"locality": "MELB NORTH WEST",
		"latitude": -37.65,
		"longitude": 145.2333
	},
	{
		"name": "Plenty",
		"postcode": 3090,
		"state": "VIC",
		"locality": "PRESTON",
		"latitude": -37.6638,
		"longitude": 145.1205
	},
	{
		"name": "St Andrews",
		"postcode": 3761,
		"state": "VIC",
		"locality": "MELB NORTH WEST",
		"latitude": -37.5782,
		"longitude": 145.3074
	},
	{
		"name": "Smiths Gully",
		"postcode": 3760,
		"state": "VIC",
		"locality": "MELB NORTH WEST",
		"latitude": -37.6201,
		"longitude": 145.2879
	},
	{
		"name": "Strathewen",
		"postcode": 3099,
		"state": "VIC",
		"locality": "PRESTON",
		"latitude": -37.5363,
		"longitude": 145.2735
	},
	{
		"name": "Watsons Creek",
		"postcode": 3097,
		"state": "VIC",
		"locality": "MELB NORTH WEST",
		"latitude": -37.6833,
		"longitude": 145.2333
	},
	{
		"name": "Yan Yean",
		"postcode": 3755,
		"state": "VIC",
		"locality": "MELB NORTH WEST",
		"latitude": -37.5667,
		"longitude": 145.1
	},
	{
		"name": "Yarrambat",
		"postcode": 3091,
		"state": "VIC",
		"locality": "PRESTON",
		"latitude": -37.6426,
		"longitude": 145.1501
	},
	{
		"name": "Bundoora",
		"postcode": 3083,
		"state": "VIC",
		"locality": "PRESTON",
		"latitude": -37.6959,
		"longitude": 145.0599
	},
	{
		"name": "Doreen",
		"postcode": 3754,
		"state": "VIC",
		"locality": "MELB NORTH WEST",
		"latitude": -37.6,
		"longitude": 145.15
	},
	{
		"name": "Epping",
		"postcode": 3076,
		"state": "VIC",
		"locality": "PRESTON",
		"latitude": -37.65,
		"longitude": 145.0333
	},
	{
		"name": "Lalor",
		"postcode": 3075,
		"state": "VIC",
		"locality": "PRESTON",
		"latitude": -37.6667,
		"longitude": 145.0167
	},
	{
		"name": "Mernda",
		"postcode": 3754,
		"state": "VIC",
		"locality": "MELB NORTH WEST",
		"latitude": -37.6,
		"longitude": 145.1
	},
	{
		"name": "Mill Park",
		"postcode": 3082,
		"state": "VIC",
		"locality": "PRESTON",
		"latitude": -37.664,
		"longitude": 145.0646
	},
	{
		"name": "South Morang",
		"postcode": 3752,
		"state": "VIC",
		"locality": "PRESTON",
		"latitude": -37.65,
		"longitude": 145.1
	},
	{
		"name": "Thomastown",
		"postcode": 3074,
		"state": "VIC",
		"locality": "PRESTON",
		"latitude": -37.6833,
		"longitude": 145.0167
	},
	{
		"name": "Keon Park",
		"postcode": 3073,
		"state": "VIC",
		"locality": "PRESTON",
		"latitude": -37.7,
		"longitude": 145.0167
	},
	{
		"name": "Beveridge",
		"postcode": 3753,
		"state": "VIC",
		"locality": "MELB NORTH WEST",
		"latitude": -37.4833,
		"longitude": 144.9833
	},
	{
		"name": "Donnybrook",
		"postcode": 3064,
		"state": "VIC",
		"locality": "MELB NORTH WEST",
		"latitude": -37.5588,
		"longitude": 144.9124
	},
	{
		"name": "Eden Park",
		"postcode": 3757,
		"state": "VIC",
		"locality": "MELB NORTH WEST",
		"latitude": -37.4939,
		"longitude": 145.056
	},
	{
		"name": "Humevale",
		"postcode": 3757,
		"state": "VIC",
		"locality": "MELB NORTH WEST",
		"latitude": -37.5,
		"longitude": 145.1667
	},
	{
		"name": "Kinglake West",
		"postcode": 3757,
		"state": "VIC",
		"locality": "MELB NORTH WEST",
		"latitude": -37.4767,
		"longitude": 145.2357
	},
	{
		"name": "Whittlesea",
		"postcode": 3757,
		"state": "VIC",
		"locality": "MELB NORTH WEST",
		"latitude": -37.4807,
		"longitude": 145.1844
	},
	{
		"name": "Wollert",
		"postcode": 3750,
		"state": "VIC",
		"locality": "MELB NORTH WEST",
		"latitude": -37.5833,
		"longitude": 145.0333
	},
	{
		"name": "Woodstock",
		"postcode": 3751,
		"state": "VIC",
		"locality": "MELB NORTH WEST",
		"latitude": -37.55,
		"longitude": 145.0333
	},
	{
		"name": "Yan Yean",
		"postcode": 3755,
		"state": "VIC",
		"locality": "MELB NORTH WEST",
		"latitude": -37.5667,
		"longitude": 145.1
	},
	{
		"name": "Ashburton",
		"postcode": 3147,
		"state": "VIC",
		"locality": "HAWTHORN",
		"latitude": -37.8669,
		"longitude": 145.0908
	},
	{
		"name": "Balwyn",
		"postcode": 3103,
		"state": "VIC",
		"locality": "HAWTHORN",
		"latitude": -37.8098,
		"longitude": 145.0805
	},
	{
		"name": "Balwyn North",
		"postcode": 3104,
		"state": "VIC",
		"locality": "HAWTHORN",
		"latitude": -37.7919,
		"longitude": 145.084
	},
	{
		"name": "Camberwell",
		"postcode": 3124,
		"state": "VIC",
		"locality": "HAWTHORN",
		"latitude": -37.8333,
		"longitude": 145.0667
	},
	{
		"name": "Camberwell North",
		"postcode": 3124,
		"state": "VIC",
		"locality": "HAWTHORN",
		"latitude": -37.8385,
		"longitude": 145.074
	},
	{
		"name": "Camberwell South",
		"postcode": 3124,
		"state": "VIC",
		"locality": "HAWTHORN",
		"latitude": -37.8385,
		"longitude": 145.074
	},
	{
		"name": "Camberwell West",
		"postcode": 3124,
		"state": "VIC",
		"locality": "HAWTHORN",
		"latitude": -37.8385,
		"longitude": 145.074
	},
	{
		"name": "Middle Camberwell",
		"postcode": 3124,
		"state": "VIC",
		"locality": "HAWTHORN",
		"latitude": -37.8385,
		"longitude": 145.074
	},
	{
		"name": "Canterbury",
		"postcode": 3126,
		"state": "VIC",
		"locality": "HAWTHORN",
		"latitude": -37.8244,
		"longitude": 145.0755
	},
	{
		"name": "Glen Iris",
		"postcode": 3146,
		"state": "VIC",
		"locality": "HAWTHORN",
		"latitude": -37.8559,
		"longitude": 145.0651
	},
	{
		"name": "Hawthorn",
		"postcode": 3122,
		"state": "VIC",
		"locality": "HAWTHORN",
		"latitude": -37.8333,
		"longitude": 145.0333
	},
	{
		"name": "Hawthorn East",
		"postcode": 3123,
		"state": "VIC",
		"locality": "HAWTHORN",
		"latitude": -37.8313,
		"longitude": 145.0499
	},
	{
		"name": "Kew",
		"postcode": 3101,
		"state": "VIC",
		"locality": "HAWTHORN",
		"latitude": -37.8167,
		"longitude": 145.0333
	},
	{
		"name": "Kew East",
		"postcode": 3102,
		"state": "VIC",
		"locality": "HAWTHORN",
		"latitude": -37.7907,
		"longitude": 145.0522
	},
	{
		"name": "Mont Albert",
		"postcode": 3127,
		"state": "VIC",
		"locality": "FERNTREE GULLY",
		"latitude": -37.8245,
		"longitude": 145.1007
	},
	{
		"name": "Mont Albert North",
		"postcode": 3129,
		"state": "VIC",
		"locality": "FERNTREE GULLY",
		"latitude": -37.8048,
		"longitude": 145.1229
	},
	{
		"name": "Surrey Hills",
		"postcode": 3127,
		"state": "VIC",
		"locality": "FERNTREE GULLY",
		"latitude": -37.8245,
		"longitude": 145.1007
	},
	{
		"name": "Bayswater",
		"postcode": 3153,
		"state": "VIC",
		"locality": "FERNTREE GULLY",
		"latitude": -37.85,
		"longitude": 145.2667
	},
	{
		"name": "Boronia",
		"postcode": 3155,
		"state": "VIC",
		"locality": "FERNTREE GULLY",
		"latitude": -37.8667,
		"longitude": 145.2833
	},
	{
		"name": "Ferntree Gully",
		"postcode": 3156,
		"state": "VIC",
		"locality": "FERNTREE GULLY",
		"latitude": -37.883,
		"longitude": 145.2954
	},
	{
		"name": "Mountain Gate",
		"postcode": 3156,
		"state": "VIC",
		"locality": "FERNTREE GULLY",
		"latitude": -37.9136,
		"longitude": 145.2823
	},
	{
		"name": "Knoxfield",
		"postcode": 3180,
		"state": "VIC",
		"locality": "FERNTREE GULLY",
		"latitude": -37.8894,
		"longitude": 145.2493
	},
	{
		"name": "Lysterfield",
		"postcode": 3156,
		"state": "VIC",
		"locality": "FERNTREE GULLY",
		"latitude": -37.9333,
		"longitude": 145.3
	},
	{
		"name": "Rowville",
		"postcode": 3178,
		"state": "VIC",
		"locality": "FERNTREE GULLY",
		"latitude": -37.9333,
		"longitude": 145.2333
	},
	{
		"name": "Scoresby",
		"postcode": 3179,
		"state": "VIC",
		"locality": "FERNTREE GULLY",
		"latitude": -37.9,
		"longitude": 145.2333
	},
	{
		"name": "The Basin",
		"postcode": 3154,
		"state": "VIC",
		"locality": "FERNTREE GULLY",
		"latitude": -37.85,
		"longitude": 145.3167
	},
	{
		"name": "Upper Ferntree Gully",
		"postcode": 3156,
		"state": "VIC",
		"locality": "FERNTREE GULLY",
		"latitude": -37.8935,
		"longitude": 145.3108
	},
	{
		"name": "Wantirna",
		"postcode": 3152,
		"state": "VIC",
		"locality": "FERNTREE GULLY",
		"latitude": -37.85,
		"longitude": 145.2167
	},
	{
		"name": "Knox City Centre",
		"postcode": 3152,
		"state": "VIC",
		"locality": "FERNTREE GULLY",
		"latitude": -37.8656,
		"longitude": 145.2228
	},
	{
		"name": "Wantirna South",
		"postcode": 3152,
		"state": "VIC",
		"locality": "FERNTREE GULLY",
		"latitude": -37.8833,
		"longitude": 145.2167
	},
	{
		"name": "Studfield",
		"postcode": 3152,
		"state": "VIC",
		"locality": "FERNTREE GULLY",
		"latitude": -37.8656,
		"longitude": 145.2228
	},
	{
		"name": "Bulleen",
		"postcode": 3105,
		"state": "VIC",
		"locality": "RINGWOOD",
		"latitude": -37.7667,
		"longitude": 145.0833
	},
	{
		"name": "Doncaster",
		"postcode": 3108,
		"state": "VIC",
		"locality": "RINGWOOD",
		"latitude": -37.7833,
		"longitude": 145.1333
	},
	{
		"name": "Doncaster East",
		"postcode": 3109,
		"state": "VIC",
		"locality": "RINGWOOD",
		"latitude": -37.7833,
		"longitude": 145.1667
	},
	{
		"name": "Doncaster Heights",
		"postcode": 3109,
		"state": "VIC",
		"locality": "RINGWOOD",
		"latitude": -37.7795,
		"longitude": 145.1638
	},
	{
		"name": "Donvale",
		"postcode": 3111,
		"state": "VIC",
		"locality": "RINGWOOD",
		"latitude": -37.8,
		"longitude": 145.1833
	},
	{
		"name": "Park Orchards",
		"postcode": 3114,
		"state": "VIC",
		"locality": "RINGWOOD",
		"latitude": -37.7811,
		"longitude": 145.2141
	},
	{
		"name": "Templestowe",
		"postcode": 3106,
		"state": "VIC",
		"locality": "RINGWOOD",
		"latitude": -37.75,
		"longitude": 145.1167
	},
	{
		"name": "Templestowe Lower",
		"postcode": 3107,
		"state": "VIC",
		"locality": "RINGWOOD",
		"latitude": -37.7667,
		"longitude": 145.1167
	},
	{
		"name": "Macedon",
		"postcode": 3440,
		"state": "VIC",
		"locality": "MELB NORTH WEST",
		"latitude": -37.4167,
		"longitude": 144.5667
	},
	{
		"name": "Warrandyte",
		"postcode": 3113,
		"state": "VIC",
		"locality": "RINGWOOD",
		"latitude": -37.75,
		"longitude": 145.2333
	},
	{
		"name": "Warrandyte South",
		"postcode": 3134,
		"state": "VIC",
		"locality": "RINGWOOD",
		"latitude": -37.7667,
		"longitude": 145.25
	},
	{
		"name": "Wonga Park",
		"postcode": 3115,
		"state": "VIC",
		"locality": "RINGWOOD",
		"latitude": -37.7333,
		"longitude": 145.2667
	},
	{
		"name": "Nunawading",
		"postcode": 3131,
		"state": "VIC",
		"locality": "FERNTREE GULLY",
		"latitude": -37.8167,
		"longitude": 145.1667
	},
	{
		"name": "Ringwood North",
		"postcode": 3134,
		"state": "VIC",
		"locality": "RINGWOOD",
		"latitude": -37.8,
		"longitude": 145.2333
	},
	{
		"name": "Bayswater North",
		"postcode": 3153,
		"state": "VIC",
		"locality": "FERNTREE GULLY",
		"latitude": -37.836,
		"longitude": 145.2743
	},
	{
		"name": "Croydon",
		"postcode": 3136,
		"state": "VIC",
		"locality": "RINGWOOD",
		"latitude": -37.8,
		"longitude": 145.2833
	},
	{
		"name": "Croydon Hills",
		"postcode": 3136,
		"state": "VIC",
		"locality": "RINGWOOD",
		"latitude": -37.7744,
		"longitude": 145.2756
	},
	{
		"name": "Croydon North",
		"postcode": 3136,
		"state": "VIC",
		"locality": "RINGWOOD",
		"latitude": -37.7833,
		"longitude": 145.3
	},
	{
		"name": "Croydon South",
		"postcode": 3136,
		"state": "VIC",
		"locality": "RINGWOOD",
		"latitude": -37.812,
		"longitude": 145.2695
	},
	{
		"name": "Heathmont",
		"postcode": 3135,
		"state": "VIC",
		"locality": "RINGWOOD",
		"latitude": -37.8333,
		"longitude": 145.25
	},
	{
		"name": "Kilsyth South",
		"postcode": 3137,
		"state": "VIC",
		"locality": "RINGWOOD",
		"latitude": -37.8191,
		"longitude": 145.3171
	},
	{
		"name": "Ringwood",
		"postcode": 3134,
		"state": "VIC",
		"locality": "RINGWOOD",
		"latitude": -37.8167,
		"longitude": 145.2333
	},
	{
		"name": "Ringwood East",
		"postcode": 3135,
		"state": "VIC",
		"locality": "RINGWOOD",
		"latitude": -37.8167,
		"longitude": 145.25
	},
	{
		"name": "Bedford Road",
		"postcode": 3135,
		"state": "VIC",
		"locality": "RINGWOOD",
		"latitude": -37.8213,
		"longitude": 145.2489
	},
	{
		"name": "Ringwood North",
		"postcode": 3134,
		"state": "VIC",
		"locality": "RINGWOOD",
		"latitude": -37.8,
		"longitude": 145.2333
	},
	{
		"name": "Warranwood",
		"postcode": 3134,
		"state": "VIC",
		"locality": "RINGWOOD",
		"latitude": -37.774,
		"longitude": 145.2483
	},
	{
		"name": "Blackburn",
		"postcode": 3130,
		"state": "VIC",
		"locality": "FERNTREE GULLY",
		"latitude": -37.8232,
		"longitude": 145.1511
	},
	{
		"name": "Laburnum",
		"postcode": 3130,
		"state": "VIC",
		"locality": "FERNTREE GULLY",
		"latitude": -37.8232,
		"longitude": 145.1511
	},
	{
		"name": "Blackburn North",
		"postcode": 3130,
		"state": "VIC",
		"locality": "FERNTREE GULLY",
		"latitude": -37.8104,
		"longitude": 145.1521
	},
	{
		"name": "Blackburn South",
		"postcode": 3130,
		"state": "VIC",
		"locality": "FERNTREE GULLY",
		"latitude": -37.8232,
		"longitude": 145.1511
	},
	{
		"name": "Box Hill",
		"postcode": 3128,
		"state": "VIC",
		"locality": "FERNTREE GULLY",
		"latitude": -37.8167,
		"longitude": 145.1333
	},
	{
		"name": "Box Hill North",
		"postcode": 3129,
		"state": "VIC",
		"locality": "FERNTREE GULLY",
		"latitude": -37.8048,
		"longitude": 145.1229
	},
	{
		"name": "Kerrimuir",
		"postcode": 3129,
		"state": "VIC",
		"locality": "FERNTREE GULLY",
		"latitude": -37.8048,
		"longitude": 145.1229
	},
	{
		"name": "Mont Albert North",
		"postcode": 3129,
		"state": "VIC",
		"locality": "FERNTREE GULLY",
		"latitude": -37.8048,
		"longitude": 145.1229
	},
	{
		"name": "Box Hill South",
		"postcode": 3128,
		"state": "VIC",
		"locality": "FERNTREE GULLY",
		"latitude": -37.829,
		"longitude": 145.1248
	},
	{
		"name": "Houston",
		"postcode": 3128,
		"state": "VIC",
		"locality": "FERNTREE GULLY",
		"latitude": -37.829,
		"longitude": 145.1248
	},
	{
		"name": "Burwood",
		"postcode": 3125,
		"state": "VIC",
		"locality": "HAWTHORN",
		"latitude": -37.8495,
		"longitude": 145.1114
	},
	{
		"name": "Bennettswood",
		"postcode": 3125,
		"state": "VIC",
		"locality": "HAWTHORN",
		"latitude": -37.8495,
		"longitude": 145.1114
	},
	{
		"name": "Wattle Park",
		"postcode": 3128,
		"state": "VIC",
		"locality": "FERNTREE GULLY",
		"latitude": -37.829,
		"longitude": 145.1248
	},
	{
		"name": "Burwood East",
		"postcode": 3151,
		"state": "VIC",
		"locality": "HAWTHORN",
		"latitude": -37.8535,
		"longitude": 145.1503
	},
	{
		"name": "Burwood Heights",
		"postcode": 3151,
		"state": "VIC",
		"locality": "HAWTHORN",
		"latitude": -37.8535,
		"longitude": 145.1503
	},
	{
		"name": "Forest Hill",
		"postcode": 3131,
		"state": "VIC",
		"locality": "FERNTREE GULLY",
		"latitude": -37.8275,
		"longitude": 145.1739
	},
	{
		"name": "Brentford Square",
		"postcode": 3131,
		"state": "VIC",
		"locality": "FERNTREE GULLY",
		"latitude": -37.8275,
		"longitude": 145.1739
	},
	{
		"name": "Mitcham",
		"postcode": 3132,
		"state": "VIC",
		"locality": "FERNTREE GULLY",
		"latitude": -37.8186,
		"longitude": 145.1987
	},
	{
		"name": "Rangeview",
		"postcode": 3132,
		"state": "VIC",
		"locality": "FERNTREE GULLY",
		"latitude": -37.8186,
		"longitude": 145.1987
	},
	{
		"name": "Mont Albert",
		"postcode": 3127,
		"state": "VIC",
		"locality": "FERNTREE GULLY",
		"latitude": -37.8245,
		"longitude": 145.1007
	},
	{
		"name": "Nunawading",
		"postcode": 3131,
		"state": "VIC",
		"locality": "FERNTREE GULLY",
		"latitude": -37.8167,
		"longitude": 145.1667
	},
	{
		"name": "Surrey Hills",
		"postcode": 3127,
		"state": "VIC",
		"locality": "FERNTREE GULLY",
		"latitude": -37.8245,
		"longitude": 145.1007
	},
	{
		"name": "Vermont",
		"postcode": 3133,
		"state": "VIC",
		"locality": "FERNTREE GULLY",
		"latitude": -37.8333,
		"longitude": 145.2
	},
	{
		"name": "Vermont South",
		"postcode": 3133,
		"state": "VIC",
		"locality": "FERNTREE GULLY",
		"latitude": -37.8477,
		"longitude": 145.1928
	},
	{
		"name": "Belgrave",
		"postcode": 3160,
		"state": "VIC",
		"locality": "FERNTREE GULLY",
		"latitude": -37.9,
		"longitude": 145.35
	},
	{
		"name": "Chirnside Park",
		"postcode": 3116,
		"state": "VIC",
		"locality": "RINGWOOD",
		"latitude": -37.7379,
		"longitude": 145.3168
	},
	{
		"name": "Kilsyth",
		"postcode": 3137,
		"state": "VIC",
		"locality": "RINGWOOD",
		"latitude": -37.8,
		"longitude": 145.3167
	},
	{
		"name": "Lilydale",
		"postcode": 3140,
		"state": "VIC",
		"locality": "RINGWOOD",
		"latitude": -37.75,
		"longitude": 145.35
	},
	{
		"name": "Montrose",
		"postcode": 3765,
		"state": "VIC",
		"locality": "RINGWOOD",
		"latitude": -37.8167,
		"longitude": 145.35
	},
	{
		"name": "Mooroolbark",
		"postcode": 3138,
		"state": "VIC",
		"locality": "RINGWOOD",
		"latitude": -37.7833,
		"longitude": 145.3
	},
	{
		"name": "Mount Evelyn",
		"postcode": 3796,
		"state": "VIC",
		"locality": "RINGWOOD",
		"latitude": -37.7833,
		"longitude": 145.3833
	},
	{
		"name": "Selby",
		"postcode": 3159,
		"state": "VIC",
		"locality": "FERNTREE GULLY",
		"latitude": -37.9167,
		"longitude": 145.3833
	},
	{
		"name": "Tecoma",
		"postcode": 3160,
		"state": "VIC",
		"locality": "FERNTREE GULLY",
		"latitude": -37.9231,
		"longitude": 145.3352
	},
	{
		"name": "Upper Ferntree Gully",
		"postcode": 3156,
		"state": "VIC",
		"locality": "FERNTREE GULLY",
		"latitude": -37.8935,
		"longitude": 145.3108
	},
	{
		"name": "Upwey",
		"postcode": 3158,
		"state": "VIC",
		"locality": "FERNTREE GULLY",
		"latitude": -37.9,
		"longitude": 145.3333
	},
	{
		"name": "Healesville",
		"postcode": 3777,
		"state": "VIC",
		"locality": "RINGWOOD",
		"latitude": -37.5514,
		"longitude": 145.5136
	},
	{
		"name": "Coldstream",
		"postcode": 3770,
		"state": "VIC",
		"locality": "RINGWOOD",
		"latitude": -37.712,
		"longitude": 145.4288
	},
	{
		"name": "Dixons Creek",
		"postcode": 3775,
		"state": "VIC",
		"locality": "RINGWOOD",
		"latitude": -37.6,
		"longitude": 145.4167
	},
	{
		"name": "Ferny Creek",
		"postcode": 3786,
		"state": "VIC",
		"locality": "FERNTREE GULLY",
		"latitude": -37.8833,
		"longitude": 145.3333
	},
	{
		"name": "Gilderoy",
		"postcode": 3797,
		"state": "VIC",
		"locality": "RINGWOOD",
		"latitude": -37.8667,
		"longitude": 145.7167
	},
	{
		"name": "Gladysdale",
		"postcode": 3797,
		"state": "VIC",
		"locality": "RINGWOOD",
		"latitude": -37.8254,
		"longitude": 145.6568
	},
	{
		"name": "Gruyere",
		"postcode": 3770,
		"state": "VIC",
		"locality": "RINGWOOD",
		"latitude": -37.7333,
		"longitude": 145.45
	},
	{
		"name": "Healesville",
		"postcode": 3777,
		"state": "VIC",
		"locality": "RINGWOOD",
		"latitude": -37.5514,
		"longitude": 145.5136
	},
	{
		"name": "Hoddles Creek",
		"postcode": 3139,
		"state": "VIC",
		"locality": "RINGWOOD",
		"latitude": -37.8333,
		"longitude": 145.5833
	},
	{
		"name": "Kallista",
		"postcode": 3791,
		"state": "VIC",
		"locality": "FERNTREE GULLY",
		"latitude": -37.8833,
		"longitude": 145.3667
	},
	{
		"name": "Kalorama",
		"postcode": 3766,
		"state": "VIC",
		"locality": "RINGWOOD",
		"latitude": -37.8167,
		"longitude": 145.3667
	},
	{
		"name": "Launching Place",
		"postcode": 3139,
		"state": "VIC",
		"locality": "RINGWOOD",
		"latitude": -37.7888,
		"longitude": 145.5641
	},
	{
		"name": "Lysterfield",
		"postcode": 3156,
		"state": "VIC",
		"locality": "FERNTREE GULLY",
		"latitude": -37.9333,
		"longitude": 145.3
	},
	{
		"name": "Macclesfield",
		"postcode": 3782,
		"state": "VIC",
		"locality": "FERNTREE GULLY",
		"latitude": -37.8833,
		"longitude": 145.4833
	},
	{
		"name": "Matlock",
		"postcode": 3723,
		"state": "VIC",
		"locality": "VIC FAR COUNTRY",
		"latitude": -37.2379,
		"longitude": 146.2899
	},
	{
		"name": "Menzies Creek",
		"postcode": 3159,
		"state": "VIC",
		"locality": "FERNTREE GULLY",
		"latitude": -37.9167,
		"longitude": 145.4
	},
	{
		"name": "Millgrove",
		"postcode": 3799,
		"state": "VIC",
		"locality": "RINGWOOD",
		"latitude": -37.7551,
		"longitude": 145.6528
	},
	{
		"name": "Monbulk",
		"postcode": 3793,
		"state": "VIC",
		"locality": "FERNTREE GULLY",
		"latitude": -37.8833,
		"longitude": 145.4
	},
	{
		"name": "Mount Dandenong",
		"postcode": 3767,
		"state": "VIC",
		"locality": "RINGWOOD",
		"latitude": -37.8333,
		"longitude": 145.3667
	},
	{
		"name": "Narre Warren East",
		"postcode": 3804,
		"state": "VIC",
		"locality": "DANDENONG",
		"latitude": -37.9716,
		"longitude": 145.3196
	},
	{
		"name": "Olinda",
		"postcode": 3788,
		"state": "VIC",
		"locality": "FERNTREE GULLY",
		"latitude": -37.85,
		"longitude": 145.3667
	},
	{
		"name": "Powelltown",
		"postcode": 3797,
		"state": "VIC",
		"locality": "RINGWOOD",
		"latitude": -37.8637,
		"longitude": 145.7536
	},
	{
		"name": "Sassafras",
		"postcode": 3787,
		"state": "VIC",
		"locality": "FERNTREE GULLY",
		"latitude": -37.8667,
		"longitude": 145.35
	},
	{
		"name": "Sassafras Gully",
		"postcode": 3787,
		"state": "VIC",
		"locality": "FERNTREE GULLY",
		"latitude": -37.8667,
		"longitude": 145.35
	},
	{
		"name": "Seville",
		"postcode": 3139,
		"state": "VIC",
		"locality": "RINGWOOD",
		"latitude": -37.7772,
		"longitude": 145.4607
	},
	{
		"name": "Killara",
		"postcode": 3312,
		"state": "VIC",
		"locality": "VIC FAR COUNTRY",
		"latitude": -37.531,
		"longitude": 141.227
	},
	{
		"name": "Sherbrooke",
		"postcode": 3789,
		"state": "VIC",
		"locality": "FERNTREE GULLY",
		"latitude": -37.8833,
		"longitude": 145.35
	},
	{
		"name": "Silvan",
		"postcode": 3795,
		"state": "VIC",
		"locality": "RINGWOOD",
		"latitude": -37.8167,
		"longitude": 145.4167
	},
	{
		"name": "Steels Creek",
		"postcode": 3775,
		"state": "VIC",
		"locality": "RINGWOOD",
		"latitude": -37.5833,
		"longitude": 145.3833
	},
	{
		"name": "The Patch",
		"postcode": 3792,
		"state": "VIC",
		"locality": "FERNTREE GULLY",
		"latitude": -37.8874,
		"longitude": 145.3926
	},
	{
		"name": "Three Bridges",
		"postcode": 3797,
		"state": "VIC",
		"locality": "RINGWOOD",
		"latitude": -37.8522,
		"longitude": 145.6949
	},
	{
		"name": "Wandin North",
		"postcode": 3139,
		"state": "VIC",
		"locality": "RINGWOOD",
		"latitude": -37.7718,
		"longitude": 145.4142
	},
	{
		"name": "Warburton",
		"postcode": 3799,
		"state": "VIC",
		"locality": "RINGWOOD",
		"latitude": -37.6686,
		"longitude": 145.9059
	},
	{
		"name": "Wesburn",
		"postcode": 3799,
		"state": "VIC",
		"locality": "RINGWOOD",
		"latitude": -37.7749,
		"longitude": 145.6439
	},
	{
		"name": "Woori Yallock",
		"postcode": 3139,
		"state": "VIC",
		"locality": "RINGWOOD",
		"latitude": -37.7888,
		"longitude": 145.5641
	},
	{
		"name": "Yarra Glen",
		"postcode": 3775,
		"state": "VIC",
		"locality": "RINGWOOD",
		"latitude": -37.6667,
		"longitude": 145.3667
	},
	{
		"name": "Yarra Junction",
		"postcode": 3797,
		"state": "VIC",
		"locality": "RINGWOOD",
		"latitude": -37.7814,
		"longitude": 145.6134
	},
	{
		"name": "Yellingbo",
		"postcode": 3139,
		"state": "VIC",
		"locality": "RINGWOOD",
		"latitude": -37.8135,
		"longitude": 145.5083
	},
	{
		"name": "Beaumaris",
		"postcode": 3193,
		"state": "VIC",
		"locality": "DANDENONG",
		"latitude": -37.9773,
		"longitude": 145.0323
	},
	{
		"name": "Cromer",
		"postcode": 3193,
		"state": "VIC",
		"locality": "DANDENONG",
		"latitude": -37.9773,
		"longitude": 145.0323
	},
	{
		"name": "Black Rock",
		"postcode": 3193,
		"state": "VIC",
		"locality": "DANDENONG",
		"latitude": -37.9667,
		"longitude": 145.0167
	},
	{
		"name": "Brighton",
		"postcode": 3186,
		"state": "VIC",
		"locality": "MOORABBIN",
		"latitude": -37.9167,
		"longitude": 145
	},
	{
		"name": "Dendy",
		"postcode": 3186,
		"state": "VIC",
		"locality": "MOORABBIN",
		"latitude": -37.9082,
		"longitude": 144.9958
	},
	{
		"name": "Brighton East",
		"postcode": 3187,
		"state": "VIC",
		"locality": "MOORABBIN",
		"latitude": -37.9172,
		"longitude": 145.0164
	},
	{
		"name": "North Road",
		"postcode": 3187,
		"state": "VIC",
		"locality": "MOORABBIN",
		"latitude": -37.9667,
		"longitude": 145.0167
	},
	{
		"name": "Cheltenham",
		"postcode": 3192,
		"state": "VIC",
		"locality": "DANDENONG",
		"latitude": -37.9694,
		"longitude": 145.0481
	},
	{
		"name": "Southland Centre",
		"postcode": 3192,
		"state": "VIC",
		"locality": "DANDENONG",
		"latitude": -37.9634,
		"longitude": 145.0615
	},
	{
		"name": "Gardenvale",
		"postcode": 3185,
		"state": "VIC",
		"locality": "MOORABBIN",
		"latitude": -37.8861,
		"longitude": 145.0061
	},
	{
		"name": "Hampton",
		"postcode": 3188,
		"state": "VIC",
		"locality": "DANDENONG",
		"latitude": -37.9374,
		"longitude": 145.0151
	},
	{
		"name": "Hampton East",
		"postcode": 3188,
		"state": "VIC",
		"locality": "DANDENONG",
		"latitude": -37.9374,
		"longitude": 145.0151
	},
	{
		"name": "Highett",
		"postcode": 3190,
		"state": "VIC",
		"locality": "DANDENONG",
		"latitude": -37.9517,
		"longitude": 145.0394
	},
	{
		"name": "Sandringham",
		"postcode": 3191,
		"state": "VIC",
		"locality": "DANDENONG",
		"latitude": -37.95,
		"longitude": 145
	},
	{
		"name": "Moorabbin",
		"postcode": 3189,
		"state": "VIC",
		"locality": "DANDENONG",
		"latitude": -37.9367,
		"longitude": 145.0342
	},
	{
		"name": "Beaconsfield",
		"postcode": 3807,
		"state": "VIC",
		"locality": "DANDENONG",
		"latitude": -38.05,
		"longitude": 145.3667
	},
	{
		"name": "Officer",
		"postcode": 3809,
		"state": "VIC",
		"locality": "DANDENONG",
		"latitude": -38.0667,
		"longitude": 145.4167
	},
	{
		"name": "Pakenham",
		"postcode": 3810,
		"state": "VIC",
		"locality": "FRANKSTON",
		"latitude": -38.0667,
		"longitude": 145.4833
	},
	{
		"name": "Emerald",
		"postcode": 3782,
		"state": "VIC",
		"locality": "FERNTREE GULLY",
		"latitude": -37.8933,
		"longitude": 145.4756
	},
	{
		"name": "Avonsleigh",
		"postcode": 3782,
		"state": "VIC",
		"locality": "FERNTREE GULLY",
		"latitude": -37.9333,
		"longitude": 145.4667
	},
	{
		"name": "Bayles",
		"postcode": 3981,
		"state": "VIC",
		"locality": "FRANKSTON",
		"latitude": -38.1833,
		"longitude": 145.5667
	},
	{
		"name": "Beaconsfield Upper",
		"postcode": 3808,
		"state": "VIC",
		"locality": "FRANKSTON",
		"latitude": -38,
		"longitude": 145.4167
	},
	{
		"name": "Bunyip",
		"postcode": 3815,
		"state": "VIC",
		"locality": "VIC FAR COUNTRY",
		"latitude": -38.1,
		"longitude": 145.7167
	},
	{
		"name": "Caldermeade",
		"postcode": 3984,
		"state": "VIC",
		"locality": "VIC FAR COUNTRY",
		"latitude": -38.2574,
		"longitude": 145.55
	},
	{
		"name": "Cardinia",
		"postcode": 3978,
		"state": "VIC",
		"locality": "FRANKSTON",
		"latitude": -38.146,
		"longitude": 145.4233
	},
	{
		"name": "Catani",
		"postcode": 3981,
		"state": "VIC",
		"locality": "FRANKSTON",
		"latitude": -38.1889,
		"longitude": 145.6484
	},
	{
		"name": "Clematis",
		"postcode": 3782,
		"state": "VIC",
		"locality": "FERNTREE GULLY",
		"latitude": -37.9292,
		"longitude": 145.4233
	},
	{
		"name": "Cockatoo",
		"postcode": 3781,
		"state": "VIC",
		"locality": "FERNTREE GULLY",
		"latitude": -37.9333,
		"longitude": 145.5
	},
	{
		"name": "Cora Lynn",
		"postcode": 3814,
		"state": "VIC",
		"locality": "VIC FAR COUNTRY",
		"latitude": -38.1453,
		"longitude": 145.6059
	},
	{
		"name": "Dalmore",
		"postcode": 3981,
		"state": "VIC",
		"locality": "FRANKSTON",
		"latitude": -38.2171,
		"longitude": 145.5776
	},
	{
		"name": "Garfield",
		"postcode": 3814,
		"state": "VIC",
		"locality": "VIC FAR COUNTRY",
		"latitude": -38.0667,
		"longitude": 145.6833
	},
	{
		"name": "Gembrook",
		"postcode": 3783,
		"state": "VIC",
		"locality": "FERNTREE GULLY",
		"latitude": -37.9487,
		"longitude": 145.657
	},
	{
		"name": "Guys Hill",
		"postcode": 3807,
		"state": "VIC",
		"locality": "DANDENONG",
		"latitude": -38.0327,
		"longitude": 145.3869
	},
	{
		"name": "Heath Hill",
		"postcode": 3981,
		"state": "VIC",
		"locality": "FRANKSTON",
		"latitude": -38.2392,
		"longitude": 145.7071
	},
	{
		"name": "Iona",
		"postcode": 3815,
		"state": "VIC",
		"locality": "VIC FAR COUNTRY",
		"latitude": -38.1233,
		"longitude": 145.7041
	},
	{
		"name": "Koo Wee Rup",
		"postcode": 3981,
		"state": "VIC",
		"locality": "FRANKSTON",
		"latitude": -38.1994,
		"longitude": 145.4908
	},
	{
		"name": "Lang Lang",
		"postcode": 3984,
		"state": "VIC",
		"locality": "VIC FAR COUNTRY",
		"latitude": -38.2667,
		"longitude": 145.5667
	},
	{
		"name": "Longwarry",
		"postcode": 3816,
		"state": "VIC",
		"locality": "VIC FAR COUNTRY",
		"latitude": -38.1113,
		"longitude": 145.7714
	},
	{
		"name": "Maryknoll",
		"postcode": 3812,
		"state": "VIC",
		"locality": "VIC FAR COUNTRY",
		"latitude": -38.0358,
		"longitude": 145.6095
	},
	{
		"name": "Menzies Creek",
		"postcode": 3159,
		"state": "VIC",
		"locality": "FERNTREE GULLY",
		"latitude": -37.9167,
		"longitude": 145.4
	},
	{
		"name": "Modella",
		"postcode": 3816,
		"state": "VIC",
		"locality": "VIC FAR COUNTRY",
		"latitude": -37.9937,
		"longitude": 145.8259
	},
	{
		"name": "Monomeith",
		"postcode": 3984,
		"state": "VIC",
		"locality": "VIC FAR COUNTRY",
		"latitude": -38.3151,
		"longitude": 145.5606
	},
	{
		"name": "Nar Nar Goon",
		"postcode": 3812,
		"state": "VIC",
		"locality": "VIC FAR COUNTRY",
		"latitude": -38.0833,
		"longitude": 145.5667
	},
	{
		"name": "Nyora",
		"postcode": 3987,
		"state": "VIC",
		"locality": "VIC FAR COUNTRY",
		"latitude": -38.3333,
		"longitude": 145.6667
	},
	{
		"name": "Pakenham Upper",
		"postcode": 3810,
		"state": "VIC",
		"locality": "FRANKSTON",
		"latitude": -38.0117,
		"longitude": 145.5124
	},
	{
		"name": "Tonimbuk",
		"postcode": 3815,
		"state": "VIC",
		"locality": "VIC FAR COUNTRY",
		"latitude": -38.0719,
		"longitude": 145.6943
	},
	{
		"name": "Tynong",
		"postcode": 3813,
		"state": "VIC",
		"locality": "VIC FAR COUNTRY",
		"latitude": -38.0833,
		"longitude": 145.6167
	},
	{
		"name": "Vervale",
		"postcode": 3814,
		"state": "VIC",
		"locality": "VIC FAR COUNTRY",
		"latitude": -38.1333,
		"longitude": 145.6667
	},
	{
		"name": "Yannathan",
		"postcode": 3981,
		"state": "VIC",
		"locality": "FRANKSTON",
		"latitude": -38.2288,
		"longitude": 145.6398
	},
	{
		"name": "Berwick",
		"postcode": 3806,
		"state": "VIC",
		"locality": "DANDENONG",
		"latitude": -38.0333,
		"longitude": 145.35
	},
	{
		"name": "Clyde",
		"postcode": 3978,
		"state": "VIC",
		"locality": "FRANKSTON",
		"latitude": -38.1333,
		"longitude": 145.3333
	},
	{
		"name": "Cranbourne",
		"postcode": 3977,
		"state": "VIC",
		"locality": "FRANKSTON",
		"latitude": -38.1,
		"longitude": 145.2833
	},
	{
		"name": "Cranbourne North",
		"postcode": 3977,
		"state": "VIC",
		"locality": "FRANKSTON",
		"latitude": -38.0822,
		"longitude": 145.2765
	},
	{
		"name": "Cranbourne South",
		"postcode": 3977,
		"state": "VIC",
		"locality": "FRANKSTON",
		"latitude": -38.1456,
		"longitude": 145.2262
	},
	{
		"name": "Doveton",
		"postcode": 3177,
		"state": "VIC",
		"locality": "DANDENONG",
		"latitude": -37.9913,
		"longitude": 145.2402
	},
	{
		"name": "Endeavour Hills",
		"postcode": 3802,
		"state": "VIC",
		"locality": "DANDENONG",
		"latitude": -37.9703,
		"longitude": 145.2561
	},
	{
		"name": "Hallam",
		"postcode": 3803,
		"state": "VIC",
		"locality": "DANDENONG",
		"latitude": -38.0167,
		"longitude": 145.2667
	},
	{
		"name": "Hampton Park",
		"postcode": 3976,
		"state": "VIC",
		"locality": "FRANKSTON",
		"latitude": -38.0333,
		"longitude": 145.25
	},
	{
		"name": "Lynbrook",
		"postcode": 3975,
		"state": "VIC",
		"locality": "FRANKSTON",
		"latitude": -38.0609,
		"longitude": 145.2521
	},
	{
		"name": "Narre Warren",
		"postcode": 3805,
		"state": "VIC",
		"locality": "DANDENONG",
		"latitude": -38.0333,
		"longitude": 145.3
	},
	{
		"name": "Narre Warren North",
		"postcode": 3804,
		"state": "VIC",
		"locality": "DANDENONG",
		"latitude": -37.9833,
		"longitude": 145.3167
	},
	{
		"name": "Blind Bight",
		"postcode": 3980,
		"state": "VIC",
		"locality": "FRANKSTON",
		"latitude": -38.2164,
		"longitude": 145.3317
	},
	{
		"name": "Cannons Creek",
		"postcode": 3977,
		"state": "VIC",
		"locality": "FRANKSTON",
		"latitude": -38.213,
		"longitude": 145.3154
	},
	{
		"name": "Devon Meadows",
		"postcode": 3977,
		"state": "VIC",
		"locality": "FRANKSTON",
		"latitude": -38.1667,
		"longitude": 145.3
	},
	{
		"name": "Harkaway",
		"postcode": 3806,
		"state": "VIC",
		"locality": "DANDENONG",
		"latitude": -38,
		"longitude": 145.35
	},
	{
		"name": "Pearcedale",
		"postcode": 3912,
		"state": "VIC",
		"locality": "FRANKSTON",
		"latitude": -38.2,
		"longitude": 145.25
	},
	{
		"name": "Tooradin",
		"postcode": 3980,
		"state": "VIC",
		"locality": "FRANKSTON",
		"latitude": -38.2106,
		"longitude": 145.3801
	},
	{
		"name": "Warneet",
		"postcode": 3980,
		"state": "VIC",
		"locality": "FRANKSTON",
		"latitude": -38.2206,
		"longitude": 145.314
	},
	{
		"name": "Dandenong",
		"postcode": 3175,
		"state": "VIC",
		"locality": "DANDENONG",
		"latitude": -37.9833,
		"longitude": 145.2
	},
	{
		"name": "Dandenong South",
		"postcode": 3164,
		"state": "VIC",
		"locality": "DANDENONG",
		"latitude": -37.9,
		"longitude": 145.1333
	},
	{
		"name": "Keysborough",
		"postcode": 3173,
		"state": "VIC",
		"locality": "DANDENONG",
		"latitude": -38.0167,
		"longitude": 145.1667
	},
	{
		"name": "Noble Park",
		"postcode": 3174,
		"state": "VIC",
		"locality": "MULGRAVE",
		"latitude": -37.9667,
		"longitude": 145.1667
	},
	{
		"name": "Noble Park North",
		"postcode": 3174,
		"state": "VIC",
		"locality": "MULGRAVE",
		"latitude": -37.9643,
		"longitude": 145.1811
	},
	{
		"name": "Springvale",
		"postcode": 3171,
		"state": "VIC",
		"locality": "MULGRAVE",
		"latitude": -37.95,
		"longitude": 145.15
	},
	{
		"name": "Springvale South",
		"postcode": 3172,
		"state": "VIC",
		"locality": "DANDENONG",
		"latitude": -37.9667,
		"longitude": 145.15
	},
	{
		"name": "Lyndhurst",
		"postcode": 3975,
		"state": "VIC",
		"locality": "FRANKSTON",
		"latitude": -38.05,
		"longitude": 145.25
	},
	{
		"name": "Bangholme",
		"postcode": 3175,
		"state": "VIC",
		"locality": "DANDENONG",
		"latitude": -38.0331,
		"longitude": 145.1795
	},
	{
		"name": "Carrum Downs",
		"postcode": 3201,
		"state": "VIC",
		"locality": "FRANKSTON",
		"latitude": -38.1,
		"longitude": 145.1833
	},
	{
		"name": "Frankston",
		"postcode": 3199,
		"state": "VIC",
		"locality": "FRANKSTON",
		"latitude": -38.1333,
		"longitude": 145.1167
	},
	{
		"name": "Karingal",
		"postcode": 3199,
		"state": "VIC",
		"locality": "FRANKSTON",
		"latitude": -38.1604,
		"longitude": 145.1399
	},
	{
		"name": "Frankston North",
		"postcode": 3200,
		"state": "VIC",
		"locality": "FRANKSTON",
		"latitude": -38.1213,
		"longitude": 145.1552
	},
	{
		"name": "Pines Forest",
		"postcode": 3200,
		"state": "VIC",
		"locality": "FRANKSTON",
		"latitude": -38.1213,
		"longitude": 145.1552
	},
	{
		"name": "Langwarrin",
		"postcode": 3910,
		"state": "VIC",
		"locality": "FRANKSTON",
		"latitude": -38.1667,
		"longitude": 145.1667
	},
	{
		"name": "Seaford",
		"postcode": 3198,
		"state": "VIC",
		"locality": "FRANKSTON",
		"latitude": -38.1,
		"longitude": 145.1333
	},
	{
		"name": "Belvedere Park",
		"postcode": 3198,
		"state": "VIC",
		"locality": "FRANKSTON",
		"latitude": -38.1049,
		"longitude": 145.1382
	},
	{
		"name": "Skye",
		"postcode": 3977,
		"state": "VIC",
		"locality": "FRANKSTON",
		"latitude": -38.1255,
		"longitude": 145.2732
	},
	{
		"name": "Langwarrin South",
		"postcode": 3911,
		"state": "VIC",
		"locality": "FRANKSTON",
		"latitude": -38.191,
		"longitude": 145.1822
	},
	{
		"name": "Bentleigh",
		"postcode": 3204,
		"state": "VIC",
		"locality": "DANDENONG",
		"latitude": -37.9156,
		"longitude": 145.0389
	},
	{
		"name": "Bentleigh East",
		"postcode": 3165,
		"state": "VIC",
		"locality": "MULGRAVE",
		"latitude": -37.9221,
		"longitude": 145.0667
	},
	{
		"name": "Coatesville",
		"postcode": 3165,
		"state": "VIC",
		"locality": "MULGRAVE",
		"latitude": -37.9221,
		"longitude": 145.0667
	},
	{
		"name": "Caulfield",
		"postcode": 3162,
		"state": "VIC",
		"locality": "MULGRAVE",
		"latitude": -37.8833,
		"longitude": 145.0167
	},
	{
		"name": "Caulfield East",
		"postcode": 3145,
		"state": "VIC",
		"locality": "MULGRAVE",
		"latitude": -37.8754,
		"longitude": 145.042
	},
	{
		"name": "Caulfield North",
		"postcode": 3161,
		"state": "VIC",
		"locality": "MULGRAVE",
		"latitude": -37.872,
		"longitude": 145.0216
	},
	{
		"name": "Caulfield Junction",
		"postcode": 3161,
		"state": "VIC",
		"locality": "MULGRAVE",
		"latitude": -37.872,
		"longitude": 145.0216
	},
	{
		"name": "Caulfield South",
		"postcode": 3162,
		"state": "VIC",
		"locality": "MULGRAVE",
		"latitude": -37.8914,
		"longitude": 145.0254
	},
	{
		"name": "Hopetoun Gardens",
		"postcode": 3162,
		"state": "VIC",
		"locality": "MULGRAVE",
		"latitude": -37.8914,
		"longitude": 145.0254
	},
	{
		"name": "Carnegie",
		"postcode": 3163,
		"state": "VIC",
		"locality": "MULGRAVE",
		"latitude": -37.8945,
		"longitude": 145.0591
	},
	{
		"name": "Elsternwick",
		"postcode": 3185,
		"state": "VIC",
		"locality": "MOORABBIN",
		"latitude": -37.8864,
		"longitude": 145.0025
	},
	{
		"name": "Gardenvale",
		"postcode": 3185,
		"state": "VIC",
		"locality": "MOORABBIN",
		"latitude": -37.8861,
		"longitude": 145.0061
	},
	{
		"name": "Glen Huntly",
		"postcode": 3163,
		"state": "VIC",
		"locality": "MULGRAVE",
		"latitude": -37.8892,
		"longitude": 145.0406
	},
	{
		"name": "Murrumbeena",
		"postcode": 3163,
		"state": "VIC",
		"locality": "MULGRAVE",
		"latitude": -37.8945,
		"longitude": 145.0591
	},
	{
		"name": "Ormond",
		"postcode": 3204,
		"state": "VIC",
		"locality": "DANDENONG",
		"latitude": -37.9156,
		"longitude": 145.0389
	},
	{
		"name": "St Kilda East",
		"postcode": 3183,
		"state": "VIC",
		"locality": "MOORABBIN",
		"latitude": -37.8676,
		"longitude": 145.0001
	},
	{
		"name": "Aspendale",
		"postcode": 3195,
		"state": "VIC",
		"locality": "DANDENONG",
		"latitude": -38.0333,
		"longitude": 145.1
	},
	{
		"name": "Aspendale Gardens",
		"postcode": 3195,
		"state": "VIC",
		"locality": "DANDENONG",
		"latitude": -38.0055,
		"longitude": 145.1096
	},
	{
		"name": "Bonbeach",
		"postcode": 3196,
		"state": "VIC",
		"locality": "DANDENONG",
		"latitude": -38.0653,
		"longitude": 145.1228
	},
	{
		"name": "Braeside",
		"postcode": 3195,
		"state": "VIC",
		"locality": "DANDENONG",
		"latitude": -37.9833,
		"longitude": 145.1167
	},
	{
		"name": "Carrum",
		"postcode": 3197,
		"state": "VIC",
		"locality": "FRANKSTON",
		"latitude": -38.0833,
		"longitude": 145.1333
	},
	{
		"name": "Chelsea",
		"postcode": 3196,
		"state": "VIC",
		"locality": "DANDENONG",
		"latitude": -38.05,
		"longitude": 145.1167
	},
	{
		"name": "Chelsea Heights",
		"postcode": 3196,
		"state": "VIC",
		"locality": "DANDENONG",
		"latitude": -38.0333,
		"longitude": 145.1333
	},
	{
		"name": "Cheltenham",
		"postcode": 3192,
		"state": "VIC",
		"locality": "DANDENONG",
		"latitude": -37.9694,
		"longitude": 145.0481
	},
	{
		"name": "Cheltenham East",
		"postcode": 3192,
		"state": "VIC",
		"locality": "DANDENONG",
		"latitude": -37.9634,
		"longitude": 145.0615
	},
	{
		"name": "Clarinda",
		"postcode": 3169,
		"state": "VIC",
		"locality": "MULGRAVE",
		"latitude": -37.9437,
		"longitude": 145.1192
	},
	{
		"name": "Clayton South",
		"postcode": 3169,
		"state": "VIC",
		"locality": "MULGRAVE",
		"latitude": -37.9437,
		"longitude": 145.1192
	},
	{
		"name": "Dingley Village",
		"postcode": 3172,
		"state": "VIC",
		"locality": "DANDENONG",
		"latitude": -37.9742,
		"longitude": 145.1339
	},
	{
		"name": "Edithvale",
		"postcode": 3196,
		"state": "VIC",
		"locality": "DANDENONG",
		"latitude": -38.0333,
		"longitude": 145.1167
	},
	{
		"name": "Heatherton",
		"postcode": 3202,
		"state": "VIC",
		"locality": "DANDENONG",
		"latitude": -37.956,
		"longitude": 145.0929
	},
	{
		"name": "Highett",
		"postcode": 3190,
		"state": "VIC",
		"locality": "DANDENONG",
		"latitude": -37.9517,
		"longitude": 145.0394
	},
	{
		"name": "Mentone",
		"postcode": 3194,
		"state": "VIC",
		"locality": "DANDENONG",
		"latitude": -37.9833,
		"longitude": 145.0667
	},
	{
		"name": "Moorabbin",
		"postcode": 3189,
		"state": "VIC",
		"locality": "DANDENONG",
		"latitude": -37.9367,
		"longitude": 145.0342
	},
	{
		"name": "Moorabbin East",
		"postcode": 3189,
		"state": "VIC",
		"locality": "DANDENONG",
		"latitude": -37.9415,
		"longitude": 145.0578
	},
	{
		"name": "Wishart",
		"postcode": 3189,
		"state": "VIC",
		"locality": "DANDENONG",
		"latitude": -37.9415,
		"longitude": 145.0578
	},
	{
		"name": "Moorabbin Airport",
		"postcode": 3194,
		"state": "VIC",
		"locality": "DANDENONG",
		"latitude": -37.9799,
		"longitude": 145.0815
	},
	{
		"name": "Mordialloc",
		"postcode": 3195,
		"state": "VIC",
		"locality": "DANDENONG",
		"latitude": -38,
		"longitude": 145.0833
	},
	{
		"name": "Parkdale",
		"postcode": 3195,
		"state": "VIC",
		"locality": "DANDENONG",
		"latitude": -37.9958,
		"longitude": 145.0692
	},
	{
		"name": "Patterson Lakes",
		"postcode": 3197,
		"state": "VIC",
		"locality": "FRANKSTON",
		"latitude": -38.0713,
		"longitude": 145.1392
	},
	{
		"name": "Waterways",
		"postcode": 3195,
		"state": "VIC",
		"locality": "DANDENONG",
		"latitude": -38.0055,
		"longitude": 145.1096
	},
	{
		"name": "Ashwood",
		"postcode": 3147,
		"state": "VIC",
		"locality": "HAWTHORN",
		"latitude": -37.8669,
		"longitude": 145.0908
	},
	{
		"name": "Burwood",
		"postcode": 3125,
		"state": "VIC",
		"locality": "HAWTHORN",
		"latitude": -37.8495,
		"longitude": 145.1114
	},
	{
		"name": "Chadstone",
		"postcode": 3148,
		"state": "VIC",
		"locality": "MULGRAVE",
		"latitude": -37.8821,
		"longitude": 145.1002
	},
	{
		"name": "Clayton",
		"postcode": 3168,
		"state": "VIC",
		"locality": "MULGRAVE",
		"latitude": -37.9167,
		"longitude": 145.1333
	},
	{
		"name": "Glen Waverley",
		"postcode": 3150,
		"state": "VIC",
		"locality": "MULGRAVE",
		"latitude": -37.8833,
		"longitude": 145.1667
	},
	{
		"name": "Syndal",
		"postcode": 3149,
		"state": "VIC",
		"locality": "MULGRAVE",
		"latitude": -37.8833,
		"longitude": 145.15
	},
	{
		"name": "Hughesdale",
		"postcode": 3166,
		"state": "VIC",
		"locality": "MULGRAVE",
		"latitude": -37.8958,
		"longitude": 145.0765
	},
	{
		"name": "Huntingdale",
		"postcode": 3166,
		"state": "VIC",
		"locality": "MULGRAVE",
		"latitude": -37.9019,
		"longitude": 145.0982
	},
	{
		"name": "Monash University",
		"postcode": 3800,
		"state": "VIC",
		"locality": "MULGRAVE",
		"latitude": -37.9106,
		"longitude": 145.1348
	},
	{
		"name": "Mount Waverley",
		"postcode": 3149,
		"state": "VIC",
		"locality": "MULGRAVE",
		"latitude": -37.8833,
		"longitude": 145.1333
	},
	{
		"name": "Mulgrave",
		"postcode": 3170,
		"state": "VIC",
		"locality": "MULGRAVE",
		"latitude": -37.9167,
		"longitude": 145.2
	},
	{
		"name": "Notting Hill",
		"postcode": 3168,
		"state": "VIC",
		"locality": "MULGRAVE",
		"latitude": -37.9016,
		"longitude": 145.1458
	},
	{
		"name": "Oakleigh",
		"postcode": 3166,
		"state": "VIC",
		"locality": "MULGRAVE",
		"latitude": -37.9,
		"longitude": 145.1
	},
	{
		"name": "Oakleigh East",
		"postcode": 3166,
		"state": "VIC",
		"locality": "MULGRAVE",
		"latitude": -37.9,
		"longitude": 145.1167
	},
	{
		"name": "Oakleigh South",
		"postcode": 3167,
		"state": "VIC",
		"locality": "MULGRAVE",
		"latitude": -37.927,
		"longitude": 145.0964
	},
	{
		"name": "Wheelers Hill",
		"postcode": 3150,
		"state": "VIC",
		"locality": "MULGRAVE",
		"latitude": -37.9,
		"longitude": 145.1833
	},
	{
		"name": "Blairgowrie",
		"postcode": 3942,
		"state": "VIC",
		"locality": "FRANKSTON",
		"latitude": -38.3613,
		"longitude": 144.7795
	},
	{
		"name": "Dromana",
		"postcode": 3936,
		"state": "VIC",
		"locality": "FRANKSTON",
		"latitude": -38.3333,
		"longitude": 144.9667
	},
	{
		"name": "Mornington",
		"postcode": 3931,
		"state": "VIC",
		"locality": "FRANKSTON",
		"latitude": -38.2167,
		"longitude": 145.0333
	},
	{
		"name": "Mount Eliza",
		"postcode": 3930,
		"state": "VIC",
		"locality": "FRANKSTON",
		"latitude": -38.1833,
		"longitude": 145.0833
	},
	{
		"name": "Kunyung",
		"postcode": 3930,
		"state": "VIC",
		"locality": "FRANKSTON",
		"latitude": -38.1943,
		"longitude": 145.0926
	},
	{
		"name": "Mount Martha",
		"postcode": 3934,
		"state": "VIC",
		"locality": "FRANKSTON",
		"latitude": -38.2667,
		"longitude": 145.0167
	},
	{
		"name": "Portsea",
		"postcode": 3944,
		"state": "VIC",
		"locality": "FRANKSTON",
		"latitude": -38.3167,
		"longitude": 144.7167
	},
	{
		"name": "Rosebud",
		"postcode": 3939,
		"state": "VIC",
		"locality": "FRANKSTON",
		"latitude": -38.3553,
		"longitude": 144.9062
	},
	{
		"name": "Rye",
		"postcode": 3941,
		"state": "VIC",
		"locality": "FRANKSTON",
		"latitude": -38.3667,
		"longitude": 144.8167
	},
	{
		"name": "Safety Beach",
		"postcode": 3936,
		"state": "VIC",
		"locality": "FRANKSTON",
		"latitude": -38.3301,
		"longitude": 144.9818
	},
	{
		"name": "St Andrews Beach",
		"postcode": 3941,
		"state": "VIC",
		"locality": "FRANKSTON",
		"latitude": -38.4151,
		"longitude": 144.8235
	},
	{
		"name": "Sorrento",
		"postcode": 3943,
		"state": "VIC",
		"locality": "FRANKSTON",
		"latitude": -38.3167,
		"longitude": 144.7333
	},
	{
		"name": "Tootgarook",
		"postcode": 3941,
		"state": "VIC",
		"locality": "FRANKSTON",
		"latitude": -38.3682,
		"longitude": 144.8625
	},
	{
		"name": "Bittern",
		"postcode": 3918,
		"state": "VIC",
		"locality": "FRANKSTON",
		"latitude": -38.3333,
		"longitude": 145.1667
	},
	{
		"name": "Crib Point",
		"postcode": 3919,
		"state": "VIC",
		"locality": "FRANKSTON",
		"latitude": -38.35,
		"longitude": 145.2
	},
	{
		"name": "Hastings",
		"postcode": 3915,
		"state": "VIC",
		"locality": "FRANKSTON",
		"latitude": -38.3,
		"longitude": 145.1833
	},
	{
		"name": "Somerville",
		"postcode": 3912,
		"state": "VIC",
		"locality": "FRANKSTON",
		"latitude": -38.2186,
		"longitude": 145.2182
	},
	{
		"name": "Pearcedale",
		"postcode": 3912,
		"state": "VIC",
		"locality": "FRANKSTON",
		"latitude": -38.2,
		"longitude": 145.25
	},
	{
		"name": "Tyabb",
		"postcode": 3913,
		"state": "VIC",
		"locality": "FRANKSTON",
		"latitude": -38.25,
		"longitude": 145.1833
	},
	{
		"name": "Arthurs Seat",
		"postcode": 3936,
		"state": "VIC",
		"locality": "FRANKSTON",
		"latitude": -38.3544,
		"longitude": 144.9498
	},
	{
		"name": "Balnarring",
		"postcode": 3926,
		"state": "VIC",
		"locality": "FRANKSTON",
		"latitude": -38.3667,
		"longitude": 145.1333
	},
	{
		"name": "Baxter",
		"postcode": 3911,
		"state": "VIC",
		"locality": "FRANKSTON",
		"latitude": -38.2,
		"longitude": 145.15
	},
	{
		"name": "Fingal",
		"postcode": 3939,
		"state": "VIC",
		"locality": "FRANKSTON",
		"latitude": -38.4248,
		"longitude": 144.8966
	},
	{
		"name": "Flinders",
		"postcode": 3929,
		"state": "VIC",
		"locality": "FRANKSTON",
		"latitude": -38.4667,
		"longitude": 145.0167
	},
	{
		"name": "Main Ridge",
		"postcode": 3928,
		"state": "VIC",
		"locality": "FRANKSTON",
		"latitude": -38.3875,
		"longitude": 144.9636
	},
	{
		"name": "Merricks",
		"postcode": 3916,
		"state": "VIC",
		"locality": "FRANKSTON",
		"latitude": -38.3833,
		"longitude": 145.0833
	},
	{
		"name": "Merricks Beach",
		"postcode": 3926,
		"state": "VIC",
		"locality": "FRANKSTON",
		"latitude": -38.3533,
		"longitude": 145.1114
	},
	{
		"name": "Merricks North",
		"postcode": 3926,
		"state": "VIC",
		"locality": "FRANKSTON",
		"latitude": -38.35,
		"longitude": 145.0833
	},
	{
		"name": "Moorooduc",
		"postcode": 3933,
		"state": "VIC",
		"locality": "FRANKSTON",
		"latitude": -38.2167,
		"longitude": 145.1167
	},
	{
		"name": "Red Hill",
		"postcode": 3937,
		"state": "VIC",
		"locality": "FRANKSTON",
		"latitude": -38.35,
		"longitude": 145.0167
	},
	{
		"name": "Red Hill South",
		"postcode": 3937,
		"state": "VIC",
		"locality": "FRANKSTON",
		"latitude": -38.3833,
		"longitude": 145.0333
	},
	{
		"name": "Shoreham",
		"postcode": 3916,
		"state": "VIC",
		"locality": "FRANKSTON",
		"latitude": -38.4167,
		"longitude": 145.05
	},
	{
		"name": "Somers",
		"postcode": 3927,
		"state": "VIC",
		"locality": "FRANKSTON",
		"latitude": -38.4,
		"longitude": 145.1667
	},
	{
		"name": "Tuerong",
		"postcode": 3915,
		"state": "VIC",
		"locality": "FRANKSTON",
		"latitude": -38.2974,
		"longitude": 145.0775
	},
	{
		"name": "Armadale",
		"postcode": 3143,
		"state": "VIC",
		"locality": "HAWTHORN",
		"latitude": -37.85,
		"longitude": 145.0167
	},
	{
		"name": "Armadale North",
		"postcode": 3143,
		"state": "VIC",
		"locality": "HAWTHORN",
		"latitude": -37.85,
		"longitude": 145.0333
	},
	{
		"name": "Glen Iris",
		"postcode": 3146,
		"state": "VIC",
		"locality": "HAWTHORN",
		"latitude": -37.8559,
		"longitude": 145.0651
	},
	{
		"name": "Kooyong",
		"postcode": 3144,
		"state": "VIC",
		"locality": "HAWTHORN",
		"latitude": -37.8407,
		"longitude": 145.0321
	},
	{
		"name": "Malvern",
		"postcode": 3144,
		"state": "VIC",
		"locality": "HAWTHORN",
		"latitude": -37.8667,
		"longitude": 145.0333
	},
	{
		"name": "Malvern East",
		"postcode": 3145,
		"state": "VIC",
		"locality": "MULGRAVE",
		"latitude": -37.8775,
		"longitude": 145.0624
	},
	{
		"name": "Central Park",
		"postcode": 3145,
		"state": "VIC",
		"locality": "MULGRAVE",
		"latitude": -37.8775,
		"longitude": 145.0624
	},
	{
		"name": "Darling",
		"postcode": 3145,
		"state": "VIC",
		"locality": "MULGRAVE",
		"latitude": -37.8775,
		"longitude": 145.0624
	},
	{
		"name": "Holmesglen",
		"postcode": 3148,
		"state": "VIC",
		"locality": "MULGRAVE",
		"latitude": -37.8821,
		"longitude": 145.1002
	},
	{
		"name": "South Yarra",
		"postcode": 3141,
		"state": "VIC",
		"locality": "MOORABBIN",
		"latitude": -37.8333,
		"longitude": 144.9833
	},
	{
		"name": "Hawksburn",
		"postcode": 3142,
		"state": "VIC",
		"locality": "MOORABBIN",
		"latitude": -37.8416,
		"longitude": 145.0177
	},
	{
		"name": "Toorak",
		"postcode": 3142,
		"state": "VIC",
		"locality": "MOORABBIN",
		"latitude": -37.8416,
		"longitude": 145.0177
	},
	{
		"name": "Windsor",
		"postcode": 3181,
		"state": "VIC",
		"locality": "MOORABBIN",
		"latitude": -37.8528,
		"longitude": 144.9978
	},
	{
		"name": "Albanvale",
		"postcode": 3021,
		"state": "VIC",
		"locality": "FOOTSCRAY",
		"latitude": -37.7459,
		"longitude": 144.77
	},
	{
		"name": "Albion",
		"postcode": 3020,
		"state": "VIC",
		"locality": "FOOTSCRAY",
		"latitude": -37.7667,
		"longitude": 144.8333
	},
	{
		"name": "Ardeer",
		"postcode": 3022,
		"state": "VIC",
		"locality": "FOOTSCRAY",
		"latitude": -37.7764,
		"longitude": 144.8016
	},
	{
		"name": "Brooklyn",
		"postcode": 3012,
		"state": "VIC",
		"locality": "FOOTSCRAY",
		"latitude": -37.8031,
		"longitude": 144.8593
	},
	{
		"name": "Cairnlea",
		"postcode": 3023,
		"state": "VIC",
		"locality": "FOOTSCRAY",
		"latitude": -37.7621,
		"longitude": 144.7542
	},
	{
		"name": "Deer Park",
		"postcode": 3023,
		"state": "VIC",
		"locality": "FOOTSCRAY",
		"latitude": -37.7667,
		"longitude": 144.7833
	},
	{
		"name": "Delahey",
		"postcode": 3037,
		"state": "VIC",
		"locality": "FOOTSCRAY",
		"latitude": -37.7156,
		"longitude": 144.7805
	},
	{
		"name": "Derrimut",
		"postcode": 3030,
		"state": "VIC",
		"locality": "MELB NORTH WEST",
		"latitude": -37.7975,
		"longitude": 144.7711
	},
	{
		"name": "Hillside",
		"postcode": 3037,
		"state": "VIC",
		"locality": "FOOTSCRAY",
		"latitude": -37.7029,
		"longitude": 144.755
	},
	{
		"name": "Kealba",
		"postcode": 3021,
		"state": "VIC",
		"locality": "FOOTSCRAY",
		"latitude": -37.7423,
		"longitude": 144.8259
	},
	{
		"name": "Keilor",
		"postcode": 3036,
		"state": "VIC",
		"locality": "FOOTSCRAY",
		"latitude": -37.7167,
		"longitude": 144.8333
	},
	{
		"name": "Keilor Downs",
		"postcode": 3038,
		"state": "VIC",
		"locality": "FOOTSCRAY",
		"latitude": -37.7066,
		"longitude": 144.794
	},
	{
		"name": "Keilor East",
		"postcode": 3033,
		"state": "VIC",
		"locality": "FOOTSCRAY",
		"latitude": -37.739,
		"longitude": 144.8547
	},
	{
		"name": "Keilor North",
		"postcode": 3036,
		"state": "VIC",
		"locality": "FOOTSCRAY",
		"latitude": -37.693,
		"longitude": 144.8008
	},
	{
		"name": "Keilor Park",
		"postcode": 3042,
		"state": "VIC",
		"locality": "FOOTSCRAY",
		"latitude": -37.7254,
		"longitude": 144.8709
	},
	{
		"name": "Kings Park",
		"postcode": 3021,
		"state": "VIC",
		"locality": "FOOTSCRAY",
		"latitude": -37.7432,
		"longitude": 144.7986
	},
	{
		"name": "St Albans",
		"postcode": 3021,
		"state": "VIC",
		"locality": "FOOTSCRAY",
		"latitude": -37.7432,
		"longitude": 144.7986
	},
	{
		"name": "Sunshine",
		"postcode": 3020,
		"state": "VIC",
		"locality": "FOOTSCRAY",
		"latitude": -37.7833,
		"longitude": 144.8333
	},
	{
		"name": "Sydenham",
		"postcode": 3037,
		"state": "VIC",
		"locality": "FOOTSCRAY",
		"latitude": -37.7,
		"longitude": 144.7667
	},
	{
		"name": "Taylors Lakes",
		"postcode": 3038,
		"state": "VIC",
		"locality": "FOOTSCRAY",
		"latitude": -37.7066,
		"longitude": 144.794
	},
	{
		"name": "Altona",
		"postcode": 3018,
		"state": "VIC",
		"locality": "FOOTSCRAY",
		"latitude": -37.8667,
		"longitude": 144.8333
	},
	{
		"name": "Altona Meadows",
		"postcode": 3028,
		"state": "VIC",
		"locality": "MELB NORTH WEST",
		"latitude": -37.8739,
		"longitude": 144.772
	},
	{
		"name": "Altona North",
		"postcode": 3025,
		"state": "VIC",
		"locality": "FOOTSCRAY",
		"latitude": -37.8379,
		"longitude": 144.8346
	},
	{
		"name": "Brooklyn",
		"postcode": 3012,
		"state": "VIC",
		"locality": "FOOTSCRAY",
		"latitude": -37.8031,
		"longitude": 144.8593
	},
	{
		"name": "Laverton",
		"postcode": 3028,
		"state": "VIC",
		"locality": "MELB NORTH WEST",
		"latitude": -37.85,
		"longitude": 144.75
	},
	{
		"name": "Newport",
		"postcode": 3015,
		"state": "VIC",
		"locality": "FOOTSCRAY",
		"latitude": -37.85,
		"longitude": 144.8833
	},
	{
		"name": "Spotswood",
		"postcode": 3015,
		"state": "VIC",
		"locality": "FOOTSCRAY",
		"latitude": -37.8377,
		"longitude": 144.8823
	},
	{
		"name": "Seabrook",
		"postcode": 3028,
		"state": "VIC",
		"locality": "MELB NORTH WEST",
		"latitude": -37.8739,
		"longitude": 144.772
	},
	{
		"name": "Seaholme",
		"postcode": 3018,
		"state": "VIC",
		"locality": "FOOTSCRAY",
		"latitude": -37.868,
		"longitude": 144.8436
	},
	{
		"name": "South Kingsville",
		"postcode": 3015,
		"state": "VIC",
		"locality": "FOOTSCRAY",
		"latitude": -37.8377,
		"longitude": 144.8823
	},
	{
		"name": "Williamstown",
		"postcode": 3016,
		"state": "VIC",
		"locality": "FOOTSCRAY",
		"latitude": -37.8667,
		"longitude": 144.9
	},
	{
		"name": "Braybrook",
		"postcode": 3019,
		"state": "VIC",
		"locality": "FOOTSCRAY",
		"latitude": -37.7867,
		"longitude": 144.8548
	},
	{
		"name": "Robinson",
		"postcode": 3019,
		"state": "VIC",
		"locality": "FOOTSCRAY",
		"latitude": -37.7867,
		"longitude": 144.8548
	},
	{
		"name": "Footscray",
		"postcode": 3011,
		"state": "VIC",
		"locality": "FOOTSCRAY",
		"latitude": -37.8,
		"longitude": 144.9
	},
	{
		"name": "Kingsville",
		"postcode": 3012,
		"state": "VIC",
		"locality": "FOOTSCRAY",
		"latitude": -37.8126,
		"longitude": 144.8818
	},
	{
		"name": "Maidstone",
		"postcode": 3012,
		"state": "VIC",
		"locality": "FOOTSCRAY",
		"latitude": -37.7821,
		"longitude": 144.8743
	},
	{
		"name": "Maribyrnong",
		"postcode": 3032,
		"state": "VIC",
		"locality": "FOOTSCRAY",
		"latitude": -37.7833,
		"longitude": 144.8833
	},
	{
		"name": "Seddon",
		"postcode": 3011,
		"state": "VIC",
		"locality": "FOOTSCRAY",
		"latitude": -37.7995,
		"longitude": 144.8963
	},
	{
		"name": "Tottenham",
		"postcode": 3012,
		"state": "VIC",
		"locality": "FOOTSCRAY",
		"latitude": -37.8031,
		"longitude": 144.8593
	},
	{
		"name": "West Footscray",
		"postcode": 3012,
		"state": "VIC",
		"locality": "FOOTSCRAY",
		"latitude": -37.8031,
		"longitude": 144.8593
	},
	{
		"name": "Yarraville",
		"postcode": 3013,
		"state": "VIC",
		"locality": "FOOTSCRAY",
		"latitude": -37.8167,
		"longitude": 144.9
	},
	{
		"name": "Brookfield",
		"postcode": 3338,
		"state": "VIC",
		"locality": "MELB NORTH WEST",
		"latitude": -37.7453,
		"longitude": 144.5531
	},
	{
		"name": "Burnside",
		"postcode": 3023,
		"state": "VIC",
		"locality": "FOOTSCRAY",
		"latitude": -37.7518,
		"longitude": 144.7604
	},
	{
		"name": "Caroline Springs",
		"postcode": 3023,
		"state": "VIC",
		"locality": "FOOTSCRAY",
		"latitude": -37.7412,
		"longitude": 144.7363
	},
	{
		"name": "Diggers Rest",
		"postcode": 3427,
		"state": "VIC",
		"locality": "MELB NORTH WEST",
		"latitude": -37.6333,
		"longitude": 144.7333
	},
	{
		"name": "Exford",
		"postcode": 3338,
		"state": "VIC",
		"locality": "MELB NORTH WEST",
		"latitude": -37.75,
		"longitude": 144.5833
	},
	{
		"name": "Kurunjang",
		"postcode": 3337,
		"state": "VIC",
		"locality": "MELB NORTH WEST",
		"latitude": -37.6751,
		"longitude": 144.5886
	},
	{
		"name": "Melton",
		"postcode": 3337,
		"state": "VIC",
		"locality": "MELB NORTH WEST",
		"latitude": -37.6292,
		"longitude": 144.6074
	},
	{
		"name": "Melton South",
		"postcode": 3338,
		"state": "VIC",
		"locality": "MELB NORTH WEST",
		"latitude": -37.7043,
		"longitude": 144.5748
	},
	{
		"name": "Mount Cottrell",
		"postcode": 3024,
		"state": "VIC",
		"locality": "MELB NORTH WEST",
		"latitude": -37.8167,
		"longitude": 144.5833
	},
	{
		"name": "Parwan",
		"postcode": 3340,
		"state": "VIC",
		"locality": "MELB NORTH WEST",
		"latitude": -37.706,
		"longitude": 144.4625
	},
	{
		"name": "Plumpton",
		"postcode": 3335,
		"state": "VIC",
		"locality": "MELB NORTH WEST",
		"latitude": -37.721,
		"longitude": 144.6999
	},
	{
		"name": "Rockbank",
		"postcode": 3335,
		"state": "VIC",
		"locality": "MELB NORTH WEST",
		"latitude": -37.721,
		"longitude": 144.6999
	},
	{
		"name": "Toolern Vale",
		"postcode": 3337,
		"state": "VIC",
		"locality": "MELB NORTH WEST",
		"latitude": -37.6,
		"longitude": 144.6
	},
	{
		"name": "Truganina",
		"postcode": 3029,
		"state": "VIC",
		"locality": "MELB NORTH WEST",
		"latitude": -37.825,
		"longitude": 144.7489
	},
	{
		"name": "Hoppers Crossing",
		"postcode": 3029,
		"state": "VIC",
		"locality": "MELB NORTH WEST",
		"latitude": -37.8589,
		"longitude": 144.6979
	},
	{
		"name": "Laverton",
		"postcode": 3028,
		"state": "VIC",
		"locality": "MELB NORTH WEST",
		"latitude": -37.85,
		"longitude": 144.75
	},
	{
		"name": "Laverton North",
		"postcode": 3026,
		"state": "VIC",
		"locality": "MELB NORTH WEST",
		"latitude": -37.8259,
		"longitude": 144.6886
	},
	{
		"name": "Point Cook",
		"postcode": 3030,
		"state": "VIC",
		"locality": "MELB NORTH WEST",
		"latitude": -37.9146,
		"longitude": 144.751
	},
	{
		"name": "Tarneit",
		"postcode": 3029,
		"state": "VIC",
		"locality": "MELB NORTH WEST",
		"latitude": -37.8667,
		"longitude": 144.6667
	},
	{
		"name": "Truganina",
		"postcode": 3029,
		"state": "VIC",
		"locality": "MELB NORTH WEST",
		"latitude": -37.825,
		"longitude": 144.7489
	},
	{
		"name": "Werribee",
		"postcode": 3030,
		"state": "VIC",
		"locality": "MELB NORTH WEST",
		"latitude": -37.9,
		"longitude": 144.6667
	},
	{
		"name": "Wyndham Vale",
		"postcode": 3024,
		"state": "VIC",
		"locality": "MELB NORTH WEST",
		"latitude": -37.8338,
		"longitude": 144.5712
	}
]
